ML Catalog Number,Format,Common Name,Scientific Name,Background Species,Recordist,Date,Year,Month,Day,Time,Country,Country-State-County,State,County,Locality,Latitude,Longitude,Age/Sex,Behaviors,Playback,Captive,Collected,Specimen ID,Home Archive Catalog Number,Recorder,Microphone,Accessory,Partner Institution,eBird Checklist ID,Unconfirmed,Air Temp(°C),Water Temp(°C),Media notes,Observation Details,Parent Species,eBird Species Code,Taxon Category,Taxonomic Sort,Recordist 2,Average Community Rating,Number of Ratings,Asset Tags,Original Image Height,Original Image Width
183111271,Photo,Sharp-shinned Hawk,Accipiter striatus,,Kyle Tansley,2019-10-20,2019,10,20,704,United States,US-VT-007,Vermont,Chittenden,Wolcott Family Natural Area,44.5506238,-73.1388134,"",,Unspecified,"","",,,,,,,S60779946,"",,,,,Accipiter striatus,shshaw,Species,7896,,4.89,107,,2405,3847
277340471,Photo,Sharp-shinned Hawk,Accipiter striatus,,Henry Jerng,2020-11-04,2020,11,4,703,United States,US-TX-157,Texas,Fort Bend,Imperial Trails and Retention Pond,29.6358530,-95.6450240,"",,Unspecified,"","",,,,,,,S75824545,"",,,,"Appeared out of nowhere and scared away a flock of least sandpipers peacefully drinking at the pond's edge.  Got great looks on this bird in flight showing its sharp-shinned hawk features:  notched tail, wrist held forward in flight, and small head that barely extend past wrists.  This is an adult bird with the ""hooded"" appearance of Sharp-shinned, with both crown and back of the neck being dark.",Accipiter striatus,shshaw,Species,7896,,4.90,72,,1750,2625
373195831,Photo,Sharp-shinned Hawk,Accipiter striatus,,Mason Maron,2021-09-26,2021,9,26,946,United States,US-WA-007,Washington,Chelan,Chelan Ridge Hawk Watch,48.0208526,-120.1032091,Immature – 1,"",Unspecified,"","",,,,,,,S95213796,"",,,banded,All banded,Accipiter striatus,shshaw,Species,7896,,4.76,63,In-hand,2573,3859
46627761,Photo,Sharp-shinned Hawk,Accipiter striatus,,Matt Davis,2017-01-26,2017,1,26,1400,United States,US-CA-113,California,Yolo,Yolo Bypass Wildlife Area,38.5517890,-121.6208018,"",,Unspecified,"","",,,,,,,S33955758,"",,,,,Accipiter striatus,shshaw,Species,7896,,4.74,58,,1446,2016
237556821,Photo,Sharp-shinned Hawk,Accipiter striatus,,Jerry Liguori,2012-09-14,2012,9,14,0,United States,US-NV-007,Nevada,Elko,Goshutes Hawkwatch,40.4253985,-114.2709489,Adult – 1,,Unspecified,"","",,,,,,,S64828119,"",,,,,Accipiter striatus,shshaw,Species,7896,,4.86,29,,748,1200
195708681,Photo,Sharp-shinned Hawk,Accipiter striatus,,Kyle Tansley,2019-12-28,2019,12,28,730,Canada,CA-QC-MR,Quebec,Montréal,Jardin botanique de Montréal (accès restreint),45.5596562,-73.5626078,"",,Unspecified,"","",,,,,,,S62718096,"",,,,,Accipiter striatus,shshaw,Species,7896,,4.62,79,,2506,4009
63342731,Photo,Sharp-shinned Hawk,Accipiter striatus,,Simon Best,2015-02-02,2015,2,2,1430,United States,US-MD-005,Maryland,Baltimore,Home,39.5117224,-76.6940975,"",,Unspecified,"","",,,,,,,S21657286,"",,,,,Accipiter striatus,shshaw,Species,7896,,4.72,43,,958,821
48356811,Photo,Sharp-shinned Hawk,Accipiter striatus,,Nick Saunders,2017-02-14,2017,2,14,1745,Canada,CA-SK-EL,Saskatchewan,Saskatoon,"Backyard, McConnell Avenue",52.0952200,-106.6619220,Juvenile,,Unspecified,"","",,,,,,,S34370803,"",,,"The same as with the adult bird, if I move slowly and don't make direct eye contact, they can be quite accommodating, allowing for a close photograph. Either that, or they are just used to me. Here is the younger bird.","Two individuals. Both previously photographed.  An adult bird with red eyes and a dark mantle, and a yellow eyed juvenile with white blotches on its head and mantle. Photos taken today.",Accipiter striatus,shshaw,Species,7896,,4.69,49,,990,887
305622201,Photo,Sharp-shinned Hawk,Accipiter striatus,,Karen Kreiger,2021-01-23,2021,1,23,1300,United States,US-CA-069,California,San Benito,Lonoak Rd.--east of Big Bend to Lewis Cr. bridge (SBT Co.),36.2850958,-120.9633951,"",,Unspecified,"","",,,,,,,S80676049,"",,,,,Accipiter striatus,shshaw,Species,7896,,4.83,29,,2941,4419
210381271,Photo,Sharp-shinned Hawk,Accipiter striatus,,Jim Merritt,2020-02-19,2020,2,19,816,United States,US-CO-041,Colorado,El Paso,Red Rock Canyon Open Space,38.8473432,-104.8811263,"",,Unspecified,"","",,,,,,,S64754998,"",,,,,Accipiter striatus,shshaw,Species,7896,,4.65,57,,10000,9112
366932371,Photo,Sharp-shinned Hawk,Accipiter striatus,,Mason Maron,2021-09-05,2021,9,5,1202,United States,US-ID-001,Idaho,Ada,Intermountain Bird Observatory at Lucky Peak,43.6056275,-116.0600716,Immature Male – 1,"",Unspecified,"","",,,,,,,S94228018,"",,,,,Accipiter striatus,shshaw,Species,7896,,4.62,60,In-hand,2803,4983
366104191,Photo,Sharp-shinned Hawk,Accipiter striatus,,Nick Saunders,2021-09-02,2021,9,2,806,Canada,CA-SK-EL,Saskatchewan,Saskatoon,"Backyard, McConnell Avenue",52.0952553,-106.6622043,"",,Unspecified,"","",,,,,,,S94093627,"",,,,Juvenile. Chased the MODO,Accipiter striatus,shshaw,Species,7896,,4.80,30,,909,1200
263260331,Photo,Sharp-shinned Hawk,Accipiter striatus,,Annie Lavoie,2020-09-16,2020,9,16,1323,Canada,CA-QC-FS,Quebec,Le Fjord-du-Saguenay,"Saint-Félix-d'Otis - Chalet",48.2939438,-70.6373638,"",,Unspecified,"","",,,,,,,S73682300,"",,,,"Depuis 10 h ce matin qu'il essaie d'attraper un geai bleu, il manque de technique le jeune , il fait des piqués vers sa proie en lâchant des cris, de temps à autre il frôle sa cible, mais toujours sans succès. Habituellement en la présence d'un accipiter les geais sont sur le qui-vive et sonnent l'alarme, mais là aucun signe de stress, ils continuent à s'alimenter aux mangeoires.",Accipiter striatus,shshaw,Species,7896,,4.90,21,,3712,5568
245078321,Photo,Sharp-shinned Hawk,Accipiter striatus,,Jerry Liguori,2003-08-28,2003,8,28,1200,United States,US-UT-011,Utah,Davis,Bountiful Peak - Skyline Drive,40.9546007,-111.8164554,Juvenile – 1,Flying,Unspecified,"","",,,,,,,S69776587,"",,,,,Accipiter striatus,shshaw,Species,7896,,4.84,25,"",1363,2084
63342751,Photo,Sharp-shinned Hawk,Accipiter striatus,,Simon Best,2015-02-02,2015,2,2,1430,United States,US-MD-005,Maryland,Baltimore,Home,39.5117224,-76.6940975,"",,Unspecified,"","",,,,,,,S21657286,"",,,,,Accipiter striatus,shshaw,Species,7896,,4.65,37,,3108,2235
154719621,Photo,Sharp-shinned Hawk,Accipiter striatus,,Eric Hynes,2019-04-29,2019,4,29,830,United States,US-CO-113,Colorado,San Miguel,Placerville (town),38.0129352,-108.0532837,Adult Male,,Unspecified,"","",,,,,,,S55563556,"",,,,,Accipiter striatus,shshaw,Species,7896,,4.57,35,,5184,3456
108413691,Photo,Sharp-shinned Hawk,Accipiter striatus,,Bob Zaremba,2016-01-03,2016,1,3,1011,United States,US-GA-067,Georgia,Cobb,2702 Lillie Lake Drive,33.9510630,-84.6284848,"",,Unspecified,"","",,,,,,,S26649443,"",,,,,Accipiter striatus,shshaw,Species,7896,,4.71,24,,1163,1586
94423551,Photo,Sharp-shinned Hawk,Accipiter striatus,,Nick Saunders,2018-04-13,2018,4,13,1851,Canada,CA-SK-EL,Saskatchewan,Saskatoon,"Backyard, McConnell Avenue",52.0953903,-106.6616871,Juvenile,,Unspecified,"","",,,,,,,S44558388,"",,,Sharp-shinned Hawk sitting on Bohemian Waxwing.,"Heard a thump on the kitchen window, to discover one of the resident juvenile sharpie's had driven a Bohemian Waxwing into a corner.  It then grabbed it, and the rest is history.../",Accipiter striatus,shshaw,Species,7896,,4.74,23,,900,1230
273043701,Photo,Sharp-shinned Hawk,Accipiter striatus,,Larry Master,2020-10-20,2020,10,20,813,United States,US-NY-031,New York,Essex,US-NY-Keene - Fisk Highlands - 44.2396x-73.7682,44.2396170,-73.7682190,"",,Unspecified,"","",,,,,,,S75151429,"",,,,,Accipiter striatus,shshaw,Species,7896,,4.69,26,,4889,4000
114763821,Photo,Sharp-shinned Hawk,Accipiter striatus,,Steven McGrath,2018-09-12,2018,9,12,935,Canada,CA-NS-CB,Nova Scotia,Cape Breton,Sydney--Ash Street,46.1462376,-60.1692065,Juvenile,,Unspecified,"","",,,,,,,S48487474,"",,,Large Sharp-shinned Hawk stalking a bird feeder for House Sparrows. Based on the size I believe it to be a female.,,Accipiter striatus,shshaw,Species,7896,,4.59,32,,3279,4918
299178811,Photo,Sharp-shinned Hawk,Accipiter striatus,,Bryan Calk,2021-01-04,2021,1,4,1021,United States,US-NM-043,New Mexico,Sandoval,Corrales Bosque -- La Entrada/East Ella,35.2204294,-106.6066890,"",,Unspecified,"","",,,,,,,S78662703,"",,,,,Accipiter striatus,shshaw,Species,7896,,4.50,40,,1719,3056
306193081,Photo,Sharp-shinned Hawk,Accipiter striatus,,Ethan Denton,2021-02-10,2021,2,10,1004,Canada,CA-AB-SI,Alberta,Calgary,"stakeout Northern Mockingbird, Okotoks--Westridge (2021)",50.7136285,-113.9816355,Immature – 1,,Unspecified,"","",,,,,,,S80772709,"",,,,,Accipiter striatus,shshaw,Species,7896,,4.71,24,,1819,2729
47026211,Photo,Sharp-shinned Hawk,Accipiter striatus,,Charmaine Anderson,2017-01-30,2017,1,30,1125,Canada,CA-ON-DR,Ontario,Durham,Lynde Shores CA,43.8491904,-78.9635570,"",,Unspecified,"","",,,,,,,S34060627,"",,,,,Accipiter striatus,shshaw,Species,7896,,4.82,17,,1465,2197
125459011,Photo,Sharp-shinned Hawk,Accipiter striatus,,Jim Carroll,2018-11-26,2018,11,26,1122,Canada,CA-NB-SJ,New Brunswick,Saint John,"Gardner Creek, Nb",45.2631000,-65.7352000,Immature,,Unspecified,"","",,,,,,,S50245556,"",,,,Unsuccessfully attempted to capture Fox Sparrow. Composed itself afterwards on this stump.,Accipiter striatus,shshaw,Species,7896,,4.50,38,,2406,2549
234214901,Photo,Sharp-shinned Hawk,Accipiter striatus,,Pablo Re,2020-05-10,2020,5,10,1100,Argentina,AR-S-SM,Santa Fe,San Martín,Monte de ruta 66,-32.0868293,-61.4127971,"",,Unspecified,"","",,,,,,,S68838284,"",,,,,Accipiter striatus,shshaw,Species,7896,,4.58,26,,2288,3432
74860251,Photo,Sharp-shinned Hawk,Accipiter striatus,,Tony Leukering,2017-11-11,2017,11,11,1159,United States,US-OK-139,Oklahoma,Texas,Texhoma (Oklahoma),36.5070190,-101.7858150,Juvenile Female,,Unspecified,"","",,,,,,,S40446314,"",,,,,Accipiter striatus,shshaw,Species,7896,,4.67,18,,1000,700
186184011,Photo,Sharp-shinned Hawk,Accipiter striatus,,Nick Swan,2019-11-05,2019,11,5,1020,Canada,CA-BC-CO,British Columbia,Central Okanagan,Kelowna--Munson Pond,49.8640484,-119.4603539,"",,Unspecified,"","",,,,,,,S61207985,"",,,,Adult being constantly mobbed by magpies.,Accipiter striatus,shshaw,Species,7896,,4.38,48,,3456,4608
304105151,Photo,Sharp-shinned Hawk,Accipiter striatus,,Jerry Liguori,2021-02-03,2021,2,3,0,United States,US-UT-035,Utah,Salt Lake,"Jerry's House",40.7045320,-111.7908990,Adult – 1,,Unspecified,"","",,,,,,,S80395163,"",,,,,Accipiter striatus,shshaw,Species,7896,,4.92,12,,1137,1800
372573141,Photo,Sharp-shinned Hawk,Accipiter striatus,,Blair Dudeck,2021-09-23,2021,9,23,913,Canada,CA-BC-NA,British Columbia,Nanaimo,Nanaimo River Estuary,49.1346003,-123.8946957,Adult – 1,Flying,Unspecified,"","",,,,,,,S95095663,"",,,,,Accipiter striatus,shshaw,Species,7896,,4.83,12,"",1873,2809
89006221,Photo,Sharp-shinned Hawk,Accipiter striatus,,Larry Therrien,2018-03-09,2018,3,9,1032,United States,US-MA-015,Massachusetts,Hampshire,Griffiths yard,42.2395273,-72.3668146,"",,Unspecified,"","",,,,,,,S43501871,"",,,,,Accipiter striatus,shshaw,Species,7896,,4.45,22,,3456,5184
100082051,Photo,Sharp-shinned Hawk,Accipiter striatus,,Brendan Klick,2018-05-13,2018,5,13,1045,United States,US-MI-033,Michigan,Chippewa,Whitefish Point,46.7690010,-84.9530029,"",,Unspecified,"","",,,,,,,S45653170,"",,,,,Accipiter striatus,shshaw,Species,7896,,4.38,29,,1367,2050
185130481,Photo,Sharp-shinned Hawk,Accipiter striatus,,Jim Merritt,2019-10-30,2019,10,30,737,United States,US-CO-041,Colorado,El Paso,Red Rock Canyon Open Space,38.8473432,-104.8811263,"",,Unspecified,"","",,,,,,,S61053327,"",,,,,Accipiter striatus,shshaw,Species,7816,,4.83,12,,10000,8835
89006191,Photo,Sharp-shinned Hawk,Accipiter striatus,,Larry Therrien,2018-03-09,2018,3,9,1032,United States,US-MA-015,Massachusetts,Hampshire,Griffiths yard,42.2395273,-72.3668146,"",,Unspecified,"","",,,,,,,S43501871,"",,,,,Accipiter striatus,shshaw,Species,7896,,4.56,18,,3456,5184
45065171,Photo,Sharp-shinned Hawk,Accipiter striatus,,Ian Hearn,2015-11-26,2015,11,26,1155,United States,US-ID-001,Idaho,Ada,Ann Morrison Park,43.6139526,-116.2242673,Adult,,Unspecified,"","",,,,,,,S33590364,"",,,,,Accipiter striatus,shshaw,Species,7816,,4.43,23,,3000,4000
247310801,Photo,Sharp-shinned Hawk,Accipiter striatus,,Jerry Liguori,1997-04-07,1997,4,7,0,United States,US-NY-055,New York,Monroe,Braddock Bay,43.3130395,-77.7153471,Adult Male – 1,"",Unspecified,"","",,,,,,,S59831190,"",,,,,Accipiter striatus,shshaw,Species,7816,,4.69,13,In-hand,1145,1800
299179251,Photo,Sharp-shinned Hawk,Accipiter striatus,,Bryan Calk,2021-01-04,2021,1,4,1021,United States,US-NM-043,New Mexico,Sandoval,Corrales Bosque -- La Entrada/East Ella,35.2204294,-106.6066890,"",,Unspecified,"","",,,,,,,S78662703,"",,,,,Accipiter striatus,shshaw,Species,7816,,5.00,9,,2812,4218
234714321,Photo,Sharp-shinned Hawk,Accipiter striatus,,Christian Briand,2020-05-14,2020,5,14,1530,Canada,CA-QC-SR,Quebec,Sept-Rivières,614 Avenue Franquelin,50.2126343,-66.3857138,"",,Unspecified,"","",,,,,,,S69058313,"",,,,,Accipiter striatus,shshaw,Species,7816,,5.00,9,,3872,2581
93734141,Photo,Sharp-shinned Hawk,Accipiter striatus,,Alex Lamoreaux,2017-10-16,2017,10,16,710,United States,US-MN-137,Minnesota,St. Louis,Hawk Ridge Nature Reserve,46.8469659,-92.0315212,Adult Male – 1,Flying,Unspecified,"","",,,,,,,S39962882,"",,,,Exact count of migrants,Accipiter striatus,shshaw,Species,7816,,5.00,9,"",2761,4138
86975771,Photo,Sharp-shinned Hawk,Accipiter striatus,,Tom Forwood JR,2018-02-19,2018,2,19,1435,United States,US-MT-031,Montana,Gallatin,Yard Birds - Willow Creek,45.8254509,-111.6445956,"",,Unspecified,"","",,,,,,,S42999660,"",,,,,Accipiter striatus,shshaw,Species,7816,,5.00,9,,2454,3414
50947111,Photo,Sharp-shinned Hawk,Accipiter striatus,,Kent McFarland,2010-06-11,2010,6,11,0,United States,US-VT-015,Vermont,Lamoille,Mt. Mansfield,44.5281640,-72.8161240,"",,Unspecified,"","",,,,,,,S35138069,"",,,,,Accipiter striatus,shshaw,Species,7816,,4.82,11,,1624,2062
369503141,Photo,Sharp-shinned Hawk,Accipiter striatus,,Annie Lavoie,2021-09-14,2021,9,14,635,Canada,CA-QC-FS,Quebec,Le Fjord-du-Saguenay,"Saint-Félix-d'Otis - Chalet",48.2935450,-70.6377080,"",,Unspecified,"","",,,,,,,S94662252,"",,,,,Accipiter striatus,shshaw,Species,7896,,4.57,14,,3712,5568
46893051,Photo,Sharp-shinned Hawk,Accipiter striatus,,Kenny Younger,2017-01-29,2017,1,29,1437,United States,US-IA-153,Iowa,Polk,Saylorville Reservoir--Visitor Center,41.7071703,-93.6709785,"",,Unspecified,"","",,,,,,,S34020571,"",,,,,Accipiter striatus,shshaw,Species,7816,,4.57,14,,1737,2606
91969171,Photo,Sharp-shinned Hawk,Accipiter striatus,,Devin Griffiths,2018-03-09,2018,3,9,910,United States,US-MA-015,Massachusetts,Hampshire,Oakwood Dr.,42.2389612,-72.3677158,"",,Unspecified,"","",,,,,,,S43499431,"",,,,,Accipiter striatus,shshaw,Species,7816,,4.67,12,,3055,4582
70544211,Photo,Sharp-shinned Hawk,Accipiter striatus,,Vickie Anderson,2017-10-01,2017,10,1,830,United States,US-WA-045,Washington,Mason,47°15’58” N  122°53’24” W,47.2667860,-122.8889176,"",,Unspecified,"","",,,,,,,S39506788,"",,,,,Accipiter striatus,shshaw,Species,7816,,4.57,14,,2021,2472
373230431,Photo,Sharp-shinned Hawk,Accipiter striatus,,Zealon Wight-Maier,2021-09-26,2021,9,26,655,United States,US-WV-023,West Virginia,Grant,Allegheny Front Migration Observatory--Red Creek CG,39.0337028,-79.3134785,"","",Unspecified,"","",,,,,,,S95284950,"",,,,,Accipiter striatus,shshaw,Species,7896,,4.80,10,In-hand,1847,2048
322655651,Photo,Sharp-shinned Hawk,Accipiter striatus,,David Woolery,2021-02-20,2021,2,20,1145,United States,US-CT-009,Connecticut,New Haven,Hammonasset Beach SP,41.2619859,-72.5548234,"",,Unspecified,"","",,,,,,,S84724015,"",,,,Photos,Accipiter striatus,shshaw,Species,7896,,4.80,10,,1450,1055
304104541,Photo,Sharp-shinned Hawk,Accipiter striatus,,Jerry Liguori,2021-02-03,2021,2,3,0,United States,US-UT-035,Utah,Salt Lake,"Jerry's House",40.7045320,-111.7908990,Adult – 1,,Unspecified,"","",,,,,,,S80395163,"",,,,,Accipiter striatus,shshaw,Species,7896,,4.80,10,,1145,1800
141517111,Photo,Sharp-shinned Hawk,Accipiter striatus,,David McQuade,2019-02-18,2019,2,18,1511,United States,US-IA-023,Iowa,Butler,Eurasian Tree Sparrow house,42.8939900,-92.8059320,"",,Unspecified,"","",,,,,,,S52906576,"",,,,"Very small hawk, with a smallish head.  Much too small to be a coopers.",Accipiter striatus,shshaw,Species,7896,,4.73,11,,3242,4862
74566961,Photo,Sharp-shinned Hawk,Accipiter striatus,,David Badke,2017-11-08,2017,11,8,1035,Canada,CA-BC-CP,British Columbia,Capital,"Home - Savannah Ave, Saanich",48.4581158,-123.3632163,"",,Unspecified,"","",,,,,,,S40380428,"",,,,Caught and was eating a Dark-eyed Junco,Accipiter striatus,shshaw,Species,7816,,4.89,9,,,
163938331,Photo,Sharp-shinned Hawk,Accipiter striatus,,Bryan Lanning,2011-11-11,2011,11,11,1527,United States,US-ID-083,Idaho,Twin Falls,"4509 Snake River Mesa Rd, Buhl US-ID (42.6553,-114.7957)",42.6552910,-114.7956700,"",,Unspecified,"","",,,,,,,S56682437,"",,,,,Accipiter striatus,shshaw,Species,7816,,4.41,17,,3456,5184
141412861,Photo,Sharp-shinned Hawk,Accipiter striatus,,Ad Konings,2019-02-18,2019,2,18,730,United States,US-NM-013,New Mexico,Dona Ana,"Randall's Pool",31.8349826,-106.6082811,"",,Unspecified,"","",,,,,,,S52876070,"",,,,,Accipiter striatus,shshaw,Species,7816,,4.37,19,,768,1090
48051841,Photo,Sharp-shinned Hawk,Accipiter striatus,,Steven Mlodinow,2011-09-17,2011,9,17,730,United States,US-CO-121,Colorado,Washington,Prewitt Reservoir (Washington Co),40.4146305,-103.3787003,Immature,,Unspecified,"","",,,,,,,S8822603,"",,,,,Accipiter striatus,shshaw,Species,7896,,4.50,14,,1173,665
95774221,Photo,Sharp-shinned Hawk,Accipiter striatus,,Kenneth Wat,2018-04-19,2018,4,19,1612,United States,US-DE-003,Delaware,New Castle,Charles E. Price Memorial Park,39.4262553,-75.7475639,"","",Unspecified,"","",,,,,,,S44731783,"",,,,Seen in grass near the pond eating a European Starling that it had caught.,Accipiter striatus,shshaw,Species,7896,,4.58,12,"Dead; Multiple species",3456,4608
393930731,Photo,Sharp-shinned Hawk,Accipiter striatus,,Chris  Rees,2021-12-06,2021,12,6,1100,Canada,CA-AB-EL,Alberta,Edmonton,Edmonton--Hermitage Park Bird Feeders,53.5798946,-113.3733916,"",,Unspecified,"","",,,,,,,S98561064,"",,,,,Accipiter striatus,shshaw,Species,7896,,4.15,33,,934,1401
322156331,Photo,Sharp-shinned Hawk,Accipiter striatus,,Laure Wilson Neish,2021-04-02,2021,4,2,1235,Canada,CA-ON-MI,Ontario,Middlesex,Home - Westmount,42.9544699,-81.2990869,Adult – 1,"",Unspecified,"","",,,,,,,S84610004,"",,,,,Accipiter striatus,shshaw,Species,7816,,4.29,21,Habitat,1500,1260
298870421,Photo,Sharp-shinned Hawk,Accipiter striatus,,Jack & Holly Bartholmai,2021-01-17,2021,1,17,1318,United States,US-WI-027,Wisconsin,Dodge,"N7229 Hickory Spring Rd, Beaver Dam US-WI (43.4549,-88.7716)",43.4549020,-88.7716050,"",Foraging or Eating,Unspecified,"","",,,,,,,S79435208,"",,,,,Accipiter striatus,shshaw,Species,7896,,4.70,10,"",3089,3862
56191451,Photo,Sharp-shinned Hawk,Accipiter striatus,,Todd Norris,2017-04-29,2017,4,29,1710,Canada,CA-ON-FR,Ontario,Frontenac,Tree Frog Farm,44.5171948,-76.6977882,"","",Unspecified,"","",,,,,,,S36402572,"",,,,"SSHA captured a female Red-winged Blackbird.  It's rough in the wild.",Accipiter striatus,shshaw,Species,7816,,4.28,18,Multiple species,1389,1600
128525181,Photo,Sharp-shinned Hawk,Accipiter striatus,,Jim Merritt,2018-12-13,2018,12,13,720,United States,US-CO-041,Colorado,El Paso,Red Rock Canyon Open Space,38.8473432,-104.8811263,"",,Unspecified,"","",,,,,,,S50636695,"",,,,,Accipiter striatus,shshaw,Species,7816,,4.70,10,,2048,2040
76235071,Photo,Sharp-shinned Hawk,Accipiter striatus,,John Brush,2017-11-25,2017,11,25,1111,United States,US-TX-215,Texas,Hidalgo,Quinta Mazatlan WBC (LTC 063),26.1768760,-98.2309932,Adult,,Unspecified,"","",,,,,,,S40722371,"",,,,,Accipiter striatus,shshaw,Species,7896,,4.78,9,,3000,4000
208982161,Photo,Sharp-shinned Hawk,Accipiter striatus,,Mark Plessner,2020-02-13,2020,2,13,1535,United States,US-OH-095,Ohio,Lucas,Plessner Residence,41.6344900,-83.6616300,"",,Unspecified,"","",,,,,,,S64427553,"",,,,,Accipiter striatus,shshaw,Species,7896,,4.88,8,,2325,2325
37530361,Photo,Sharp-shinned Hawk (White-breasted),Accipiter striatus chionogaster,,Oscar Rolando Suazo Ortega,2016-10-16,2016,10,16,700,Honduras,HN-CM,Comayagua,,"El Zapote, Aldea El Zapote, Siguatepeque",14.6573802,-87.8869894,"",,Unspecified,"","",,,,,,,S32071294,"",,,,,Accipiter striatus,shshaw3,Group,7906,,4.50,12,,2448,3264
146570411,Photo,Sharp-shinned Hawk,Accipiter striatus,,Steve Kruse,2019-03-21,2019,3,21,815,United States,US-NE-109,Nebraska,Lancaster,Branched Oak SRA,40.9704362,-96.8676911,"",,Unspecified,"","",,,,,,,S54082487,"",,,,Area 1 - Rapid wing beats,Accipiter striatus,shshaw,Species,7816,,4.55,11,,1844,2765
46578761,Photo,Sharp-shinned Hawk,Accipiter striatus,,S. Andujar,2017-01-25,2017,1,25,1530,United States,US-NH-001,New Hampshire,Belknap,"Straits Road, New Hampton",43.6521307,-71.5648985,"",,Unspecified,"","",,,,,,,S33942136,"",,,,With White-breasted Nuthatch,Accipiter striatus,shshaw,Species,7896,,4.46,13,,640,640
314289781,Photo,Sharp-shinned Hawk,Accipiter striatus,,Janine Schutt,2021-03-06,2021,3,6,1200,United States,US-WA-035,Washington,Kitsap,"Janine's yard",47.6050887,-122.7646377,"",,Unspecified,"","",,,,,,,S82911203,"",,,,,Accipiter striatus,shshaw,Species,7816,,5.00,7,,3031,2020
286970901,Photo,Sharp-shinned Hawk,Accipiter striatus,,Jorge Montalvo,2020-12-10,2020,12,10,1000,United States,US-NY-119,New York,Westchester,Marshlands Conservancy,40.9531117,-73.7012273,"",,Unspecified,"","",,,,,,,S77319252,"",,,,,Accipiter striatus,shshaw,Species,7896,,5.00,7,,1644,2400
286038881,Photo,Sharp-shinned Hawk,Accipiter striatus,,Olivier Langrand,2020-11-30,2020,11,30,730,United States,US-VA-059,Virginia,Fairfax,"Langrand's Yard, Reston, VA",38.9209503,-77.3548364,Immature – 1,,Unspecified,"","",,,,,,,S76898680,"",,,,,Accipiter striatus,shshaw,Species,7896,,5.00,7,,3217,4826
276772921,Photo,Sharp-shinned Hawk,Accipiter striatus,,Adam Sell,2020-11-02,2020,11,2,829,United States,US-IL-097,Illinois,Lake,Fort Sheridan Forest Preserve--Hawkwatch,42.2227336,-87.8121006,"",,Unspecified,"","",,,,,,,S75741663,"",,,,,Accipiter striatus,shshaw,Species,7896,,5.00,7,,1805,2707
263026511,Photo,Sharp-shinned Hawk,Accipiter striatus,,Martin Bélanger,2020-09-15,2020,9,15,700,Canada,CA-QC-FS,Quebec,Le Fjord-du-Saguenay,"Saint-Félix-d'Otis - Chalet",48.2935450,-70.6377080,"",,Unspecified,"","",,,,,,,S73649278,"",,,,,Accipiter striatus,shshaw,Species,7896,,5.00,7,,2848,4288
243128301,Photo,Sharp-shinned Hawk,Accipiter striatus,,Jerry Liguori,2003-10-03,2003,10,3,1400,United States,US-NJ-009,New Jersey,Cape May,Cape Island--CMPSP--Hawkwatch Platform,38.9328558,-74.9579416,Juvenile – 1,,Unspecified,"","",,,,,,,S69988556,"",,,,,Accipiter striatus,shshaw,Species,7816,,5.00,7,,1055,1694
70544161,Photo,Sharp-shinned Hawk,Accipiter striatus,,Vickie Anderson,2017-10-01,2017,10,1,830,United States,US-WA-045,Washington,Mason,47°15’58” N  122°53’24” W,47.2667860,-122.8889176,"",,Unspecified,"","",,,,,,,S39506788,"",,,,,Accipiter striatus,shshaw,Species,7816,,5.00,7,,3263,3494
30498211,Photo,Sharp-shinned Hawk,Accipiter striatus,,Karl Overman,2015-01-10,2015,1,10,1015,United States,US-MI-115,Michigan,Monroe,Petersburg SGA,41.8801060,-83.6895561,"",,Unspecified,"","",,,,,,,S21285847,"",,,,,Accipiter striatus,shshaw,Species,7816,,5.00,7,,1754,2152
41403251,Photo,Sharp-shinned Hawk,Accipiter striatus,,Norman Uyeda,2016-11-30,2016,11,30,1430,United States,US-CA-087,California,Santa Cruz,208 Plum Hill Dr,36.9344539,-121.7335349,"","",Unspecified,"","",,,,,,,S32798352,"",,,,,Accipiter striatus,shshaw,Species,7816,,3.96,45,Habitat,2926,3901
187788841,Photo,Sharp-shinned Hawk,Accipiter striatus,,Brad Imhoff,2019-10-10,2019,10,10,810,United States,US-OH-089,Ohio,Licking,Granville Schools Land Lab,40.0889220,-82.5452640,"",,Unspecified,"","",,,,,,,S60501099,"",,,,,Accipiter striatus,shshaw,Species,7816,,4.60,10,,1918,2877
222357191,Photo,Sharp-shinned Hawk,Accipiter striatus,,Ken Janes,2020-04-10,2020,4,10,800,United States,US-ME-031,Maine,York,"8 Robie Rd, Kennebunk US-ME 43.34509, -70.50678",43.3450900,-70.5067840,"",,Unspecified,"","",,,,,,,S66904661,"",,,,"Noticeably smaller than the Cooper's that appeared earlier today.  Appears to be a  1st year bird.  Raided the bird feeder at 4pm and spent time in the bushes looking for chipmunks.",Accipiter striatus,shshaw,Species,7816,,4.67,9,,1365,2048
371684711,Photo,Sharp-shinned Hawk (Northern),Accipiter striatus [velox Group],,Ian Davies,2021-09-17,2021,9,17,1053,United States,US-MN-137,Minnesota,St. Louis,Hawk Ridge Nature Reserve--Summit Ledges,46.8525610,-92.0280710,"",,Unspecified,"","",,,,,,,S94928966,"",,,,,Accipiter striatus,shshaw2,Group,7901,,4.55,11,,1636,2681
247311601,Photo,Sharp-shinned Hawk,Accipiter striatus,,Jerry Liguori,1997-04-22,1997,4,22,0,United States,US-NY-055,New York,Monroe,Braddock Bay,43.3130395,-77.7153471,Adult Female – 1,"",Unspecified,"","",,,,,,,S71102781,"",,,,,Accipiter striatus,shshaw,Species,7816,,4.67,9,In-hand,1103,1800
125459031,Photo,Sharp-shinned Hawk,Accipiter striatus,,Jim Carroll,2018-11-26,2018,11,26,1122,Canada,CA-NB-SJ,New Brunswick,Saint John,"Gardner Creek, Nb",45.2631000,-65.7352000,Immature,,Unspecified,"","",,,,,,,S50245556,"",,,,Unsuccessfully attempted to capture Fox Sparrow. Composed itself afterwards on this stump.,Accipiter striatus,shshaw,Species,7816,,4.29,14,,2541,3185
307550641,Photo,Sharp-shinned Hawk,Accipiter striatus,,Fred Forssell,2021-02-14,2021,2,14,1003,United States,US-ID-017,Idaho,Bonner,"235 Wild Horse Trail, Sandpoint US-ID 48.37152, -116.45111",48.3715210,-116.4511130,"",,Unspecified,"","",,,,,,,S81404535,"",,,,"Juvenile/subadult Changed species from COHA to SSHA",Accipiter striatus,shshaw,Species,7816,,4.75,8,,2400,2998
304104571,Photo,Sharp-shinned Hawk,Accipiter striatus,,Jerry Liguori,2021-02-03,2021,2,3,0,United States,US-UT-035,Utah,Salt Lake,"Jerry's House",40.7045320,-111.7908990,Adult – 1,,Unspecified,"","",,,,,,,S80395163,"",,,,,Accipiter striatus,shshaw,Species,7896,,4.75,8,,2825,4829
205793671,Photo,Sharp-shinned Hawk (Northern),Accipiter striatus [velox Group],,Ken Simonite,2014-04-21,2014,4,21,0,Canada,CA-MB-EL,Manitoba,Winnipeg,"Winnipeg (49.8008, -97.1645)",49.8008000,-97.1645000,"",Foraging or Eating,Unspecified,"","",,IBC1054674,,,,,S65137502,"",,,"Adult eating a Mourning Dove. Elevation: 232 m. Date added to IBC: June 21, 2016.",IBC scientific name: Accipiter striatus velox.,Accipiter striatus,shshaw2,Group,7901,,4.75,8,"",2728,3400
70544351,Photo,Sharp-shinned Hawk,Accipiter striatus,,Vickie Anderson,2017-10-01,2017,10,1,830,United States,US-WA-045,Washington,Mason,47°15’58” N  122°53’24” W,47.2667860,-122.8889176,"",,Unspecified,"","",,,,,,,S39506788,"",,,,,Accipiter striatus,shshaw,Species,7816,,4.75,8,,1902,1951
82708971,Photo,Sharp-shinned Hawk,Accipiter striatus,,Alex Lamoreaux,2018-01-20,2018,1,20,755,United States,US-PA-043,Pennsylvania,Dauphin,Lamoreaux House & Fishburn Farmland,40.2572382,-76.6398364,Adult Male,Flying,Unspecified,"","",,,,,,,S42092350,"",,,,Adult male seen twice,Accipiter striatus,shshaw,Species,7816,,4.75,8,"",2163,3248
314290011,Photo,Sharp-shinned Hawk,Accipiter striatus,,Janine Schutt,2021-03-06,2021,3,6,1200,United States,US-WA-035,Washington,Kitsap,"Janine's yard",47.6050887,-122.7646377,"",,Unspecified,"","",,,,,,,S82911203,"",,,,,Accipiter striatus,shshaw,Species,7816,,4.86,7,,1944,1296
139947661,Photo,Sharp-shinned Hawk,Accipiter striatus,,Kent McFarland,2019-02-09,2019,2,9,0,United States,US-VT-027,Vermont,Windsor,Kent House,43.6243935,-72.5048141,Adult,,Unspecified,"","",,,,,,,S52552770,"",,,feeding on Black-capped Chickadee,feeding on a Black-capped Chickadee near songbird feeding station,Accipiter striatus,shshaw,Species,7816,,4.86,7,,3345,5017
94420971,Photo,Sharp-shinned Hawk,Accipiter striatus,,Michael Bowen,2011-12-24,2011,12,24,1100,United States,US-MI-161,Michigan,Washtenaw,"Bowen's Neighborhood",42.3331747,-84.0550636,"",,Unspecified,"","",,,,,,,S44557364,"",,,,,Accipiter striatus,shshaw,Species,7816,,4.86,7,,3462,2765
75399251,Photo,Sharp-shinned Hawk,Accipiter striatus,,"Jeff O'Connell",2017-11-14,2017,11,14,820,United States,US-FL-073,Florida,Leon,Faulk Drive Landing,30.5215893,-84.3238068,"",,Unspecified,"","",,,,,,,S40562937,"",,,,,Accipiter striatus,shshaw,Species,7816,,4.86,7,,1677,2515
70290991,Photo,Sharp-shinned Hawk,Accipiter striatus,,Jonathan Eckerson,2017-09-29,2017,9,29,620,United States,US-MA-005,Massachusetts,Bristol,Gooseberry Neck,41.4869773,-71.0375977,"",,Unspecified,"","",,,,,,,S39457361,"",,,,Birds coming off the ocean and up the island.,Accipiter striatus,shshaw,Species,7816,,4.50,10,,2824,4385
269414971,Photo,Sharp-shinned Hawk,Accipiter striatus,,Kent Forward,2020-10-08,2020,10,8,1644,United States,US-CA-081,California,San Mateo,Rancho Corral de Tierra--Moss Beach area,37.5288638,-122.5005358,"",,Unspecified,"","",,,,,,,S74586348,"",,,,"Fascinating to see this accipter at such close range, seemingly could care less about my nearby presence, stack of central retrices of equal length point to Sharpie. Quite a few birds in the vicinity complaining about its presence including a brave Bewick's Wren occasionally popping out quite close to it to give it what for before prudently diving back to deep cover. Note: this bird was so small, I wondered briefly if it might be a Merlin! But Merlin's have dark eyes (this bird has yellow eye of immature Sharp-shinned), and also, Merlins have shorter tails than this bird.",Accipiter striatus,shshaw,Species,7816,,4.25,16,,2397,3595
184346051,Photo,Sharp-shinned Hawk,Accipiter striatus,,Ethan Gosnell,2019-10-26,2019,10,26,757,Canada,CA-ON-HU,Ontario,Huron,The Bluff,43.3793330,-81.7143510,"",,Unspecified,"","",,,,,,,S60947130,"",,,,,Accipiter striatus,shshaw,Species,7816,,4.56,9,,2518,3777
55868861,Photo,Sharp-shinned Hawk,Accipiter striatus,,James McCall,2017-04-26,2017,4,26,804,United States,US-CO-059,Colorado,Jefferson,McCall Wildlife Habitat 39.837x-105.066 home,39.8374178,-105.0662842,Immature,,Unspecified,"","",,,,,,,S36281148,"",,,,caught a Eurasian dove,Accipiter striatus,shshaw,Species,7816,,3.90,31,,1536,2048
335624861,Photo,Sharp-shinned Hawk (Caribbean),Accipiter striatus [striatus Group],,Roberto Jovel,2021-05-08,2021,5,8,830,Cuba,CU-14,Guantánamo,,Parque Nacional Alejandro de Humboldt,20.5020474,-74.6759077,"",,Unspecified,"","",,,,,,,S87557297,"",,,,"Fringilloides (Cuban). White chest, abdomen and leg feathers, with very thin gray-ferruginous bars.",Accipiter striatus,shshaw1,Group,7897,,5.00,6,,1382,1843
316181431,Photo,Sharp-shinned Hawk (Plain-breasted),Accipiter striatus ventralis,,Paul Molina A,2021-03-10,2021,3,10,730,Ecuador,EC-A,Azuay,,Via LLacao - Ricaurte,-2.8420910,-78.9547330,"",,Unspecified,"","",,,,,,,S83120926,"",,,,"morfo obscuro, perchado, cantando, volando.",Accipiter striatus,shshaw4,Group,7827,,5.00,6,,3296,2472
302332061,Photo,Sharp-shinned Hawk,Accipiter striatus,,Jim Parrish,2021-01-25,2021,1,25,1050,United States,US-WA-071,Washington,Walla Walla,Austin St,46.0360030,-118.3220887,"",,Unspecified,"","",,,,,,,S80070323,"",,,,,Accipiter striatus,shshaw,Species,7816,,5.00,6,,3137,4703
262201331,Photo,Sharp-shinned Hawk,Accipiter striatus,,Sachi Snively,2020-09-12,2020,9,12,645,Canada,CA-BC-CR,British Columbia,Cariboo,Tatlayoko Lake Bird Observatory,51.6532824,-124.4046092,"","",Unspecified,"","",,,,,,,S73516430,"",,,,1 banded,Accipiter striatus,shshaw,Species,7816,,5.00,6,In-hand,3456,4608
205102411,Photo,Sharp-shinned Hawk (Northern),Accipiter striatus [velox Group],,Dubi Shapiro,2019-01-12,2019,1,12,0,United States,US-AZ-003,Arizona,Cochise,"Ash Canyon Bird Sanctuary (closed Thursday morning; formerly Ash Canyon B&B)",31.3904516,-110.2392496,"",,Unspecified,"","",,IBC1572992,,,,,S65093217,"",,,"An adult resting on a rock . Elevation: 1630 m. Date added to IBC: March 24, 2019.",IBC scientific name: Accipiter striatus velox.,Accipiter striatus,shshaw2,Group,7821,,5.00,6,,667,1000
91968931,Photo,Sharp-shinned Hawk,Accipiter striatus,,Devin Griffiths,2018-03-09,2018,3,9,910,United States,US-MA-015,Massachusetts,Hampshire,Oakwood Dr.,42.2389612,-72.3677158,"",,Unspecified,"","",,,,,,,S43499431,"",,,,,Accipiter striatus,shshaw,Species,7816,,5.00,6,,3194,4791
49943901,Photo,Sharp-shinned Hawk,Accipiter striatus,,Nick Saunders,2017-03-03,2017,3,3,1730,Canada,CA-SK-EL,Saskatchewan,Saskatoon,"Backyard, McConnell Avenue",52.0953903,-106.6616871,Adult,,Unspecified,"","",,,,,,,S34941243,"",,,,"A return visit from an adult SSHA.  Spent some time at the pond, and then sat above feeders hoping for a meal.",Accipiter striatus,shshaw,Species,7816,,4.62,8,,843,1110
33528991,Photo,Sharp-shinned Hawk,Accipiter striatus,,Shelley Rutkin,2010-02-14,2010,2,14,0,United States,US-NC-067,North Carolina,Forsyth,Mallard Lakes,36.1892920,-80.3225522,"",,Unspecified,"","",,,,,,,S5935571,"",,,,,Accipiter striatus,shshaw,Species,7816,,4.40,10,,2448,3264
226688031,Photo,Sharp-shinned Hawk,Accipiter striatus,,Caleb Putnam,2020-04-22,2020,4,22,1025,United States,US-MI-005,Michigan,Allegan,Saugatuck Dunes SP,42.7015506,-86.1950397,"",,Unspecified,"","",,,,,,,S67636084,"",,,,,Accipiter striatus,shshaw,Species,7816,,4.20,15,,1314,2369
226639961,Photo,Sharp-shinned Hawk,Accipiter striatus,,Ryan Zucker,2019-10-12,2019,10,12,649,United States,US-NJ-009,New Jersey,Cape May,Cape Island--Higbee Beach WMA--Dike/Morning Flight Songbird Count,38.9637983,-74.9606180,"",,Unspecified,"","",,,,,,,S60706051,"",,,,,Accipiter striatus,shshaw,Species,7896,,4.44,9,,1265,2249
313573761,Photo,Sharp-shinned Hawk,Accipiter striatus,,Nick Saunders,2021-03-04,2021,3,4,1530,Canada,CA-SK-EL,Saskatchewan,Saskatoon,"Backyard, McConnell Avenue",52.0954380,-106.6618090,"",,Unspecified,"","",,,,,,,S82755540,"",,,,Regular visiting adult.,Accipiter striatus,shshaw,Species,7896,,4.71,7,,990,859
45553981,Photo,Sharp-shinned Hawk,Accipiter striatus,,Brian Peterson,2011-01-22,2011,1,22,1239,United States,US-NE-055,Nebraska,Douglas,Heron Haven,41.2915443,-96.0934639,"",,Unspecified,"","",,,,,,,S12448415,"",,,,,Accipiter striatus,shshaw,Species,7816,,4.71,7,,5184,3456
139901311,Photo,Sharp-shinned Hawk,Accipiter striatus,,Jim Merritt,2019-02-09,2019,2,9,700,United States,US-CO-041,Colorado,El Paso,Red Rock Canyon Open Space,38.8473432,-104.8811263,"",,Unspecified,"","",,,,,,,S52519107,"",,,,,Accipiter striatus,shshaw,Species,7816,,4.71,7,,3163,2919
110836121,Photo,Sharp-shinned Hawk,Accipiter striatus,,Charlie Spencer,2016-03-01,2016,3,1,1215,United States,US-SC-063,South Carolina,Lexington,0. Longshadow Court,33.9727493,-81.3164220,"",,Unspecified,"","",,,,,,,S43176586,"",,,,,Accipiter striatus,shshaw,Species,7896,,4.30,10,,3456,4608
41403221,Photo,Sharp-shinned Hawk,Accipiter striatus,,Norman Uyeda,2016-11-30,2016,11,30,1430,United States,US-CA-087,California,Santa Cruz,208 Plum Hill Dr,36.9344539,-121.7335349,"","",Unspecified,"","",,,,,,,S32798352,"",,,,,Accipiter striatus,shshaw,Species,7816,,3.75,44,Habitat,3150,4199
374986251,Photo,Sharp-shinned Hawk (Northern),Accipiter striatus [velox Group],,Aidan Brubaker,2021-10-03,2021,10,3,1521,United States,US-CA-041,California,Marin,Hawk Hill,37.8281456,-122.4991411,"",,Unspecified,"","",,,,,,,S95567915,"",,,,,Accipiter striatus,shshaw2,Group,7901,,4.36,11,,1354,1837
373229941,Photo,Sharp-shinned Hawk,Accipiter striatus,,Zealon Wight-Maier,2021-09-26,2021,9,26,655,United States,US-WV-023,West Virginia,Grant,Allegheny Front Migration Observatory--Red Creek CG,39.0337028,-79.3134785,"","",Unspecified,"","",,,,,,,S95284950,"",,,,,Accipiter striatus,shshaw,Species,7896,,4.83,6,In-hand,2048,1776
369503121,Photo,Sharp-shinned Hawk,Accipiter striatus,,Annie Lavoie,2021-09-14,2021,9,14,635,Canada,CA-QC-FS,Quebec,Le Fjord-du-Saguenay,"Saint-Félix-d'Otis - Chalet",48.2935450,-70.6377080,"",,Unspecified,"","",,,,,,,S94662252,"",,,,,Accipiter striatus,shshaw,Species,7896,,4.83,6,,3712,5568
309694581,Photo,Sharp-shinned Hawk,Accipiter striatus,,David M. Bell,2020-09-29,2020,9,29,622,Canada,CA-BC-CP,British Columbia,Capital,Rocky Point Bird Observatory (restricted access),48.3198007,-123.5471500,"",,Unspecified,"","",,,,,,,S74224553,"",,,,,Accipiter striatus,shshaw,Species,7896,,4.83,6,,3398,5097
304104591,Photo,Sharp-shinned Hawk,Accipiter striatus,,Jerry Liguori,2021-02-03,2021,2,3,0,United States,US-UT-035,Utah,Salt Lake,"Jerry's House",40.7045320,-111.7908990,Adult – 1,,Unspecified,"","",,,,,,,S80395163,"",,,,,Accipiter striatus,shshaw,Species,7896,,4.83,6,,3108,5184
299179141,Photo,Sharp-shinned Hawk,Accipiter striatus,,Bryan Calk,2021-01-04,2021,1,4,1021,United States,US-NM-043,New Mexico,Sandoval,Corrales Bosque -- La Entrada/East Ella,35.2204294,-106.6066890,"",,Unspecified,"","",,,,,,,S78662703,"",,,,,Accipiter striatus,shshaw,Species,7816,,4.83,6,,4492,3594
217596461,Photo,Sharp-shinned Hawk,Accipiter striatus,,Ted Down,2020-03-23,2020,3,23,1405,Canada,CA-ON-SC,Ontario,Simcoe,106 GMD - Yard,44.4896633,-80.1677956,Adult – 1,Foraging or Eating,Unspecified,"","",,,,,,,S66144733,"",,,Freshly killed Mourning Dove that it chased into a window.,The hawk chased a Mourning Dove into one of our windows.  It may have died on impact as the hawk was already plucking the bird less than a minute after we heard the impact.,Accipiter striatus,shshaw,Species,7896,,4.83,6,"",1820,2426
205218921,Photo,Sharp-shinned Hawk,Accipiter striatus,,Dave Rintoul,2012-12-30,2012,12,30,0,United States,US-KS-161,Kansas,Riley,"Manhattan (39.2206, -96.6141)",39.2206000,-96.6141000,"",,Unspecified,"","",,IBC1015708,,,,,S65099942,"",,,"Watching the feeder birds. The hawk scared a dark-eyed junco into flying into the window of the deck door, and I didn't see the junco when I looked out the window. He was watching it, quite patiently, while I took his picture. When I moved away from the window, he flew down and picked it up, then flew off into the woods for dinner. Elevation: 378 m. Date added to IBC: June 21, 2016.",,Accipiter striatus,shshaw,Species,7816,,4.83,6,,858,900
50947101,Photo,Sharp-shinned Hawk,Accipiter striatus,,Kent McFarland,2010-06-11,2010,6,11,0,United States,US-VT-015,Vermont,Lamoille,Mt. Mansfield,44.5281640,-72.8161240,"",,Unspecified,"","",,,,,,,S35138069,"",,,,,Accipiter striatus,shshaw,Species,7816,,4.83,6,,2060,1468
56191391,Photo,Sharp-shinned Hawk,Accipiter striatus,,Todd Norris,2017-04-29,2017,4,29,1710,Canada,CA-ON-FR,Ontario,Frontenac,Tree Frog Farm,44.5171948,-76.6977882,"",,Unspecified,"","",,,,,,,S36402572,"",,,,"SSHA captured a female Red-winged Blackbird.  It's rough in the wild.",Accipiter striatus,shshaw,Species,7816,,3.95,20,,1033,1600
299057761,Photo,Sharp-shinned Hawk,Accipiter striatus,,Jeff Mills,2021-01-18,2021,1,18,928,United States,US-WA-057,Washington,Skagit,Backyard Feeder and Environs,48.4162800,-122.2917890,"",,Unspecified,"","",,,,,,,S79497015,"",,,,Successful attack on Pine Siskin.,Accipiter striatus,shshaw,Species,7816,,4.50,8,,2041,1534
207662011,Photo,Sharp-shinned Hawk,Accipiter striatus,,Roxanna Tessman,2020-02-06,2020,2,6,0,United States,US-OR-029,Oregon,Jackson,Linda Ave - Nezla St,42.1761756,-122.6788396,"",,Unspecified,"","",,,,,,,S64190490,"",,,,,Accipiter striatus,shshaw,Species,7896,,4.50,8,,2984,4662
125459021,Photo,Sharp-shinned Hawk,Accipiter striatus,,Jim Carroll,2018-11-26,2018,11,26,1122,Canada,CA-NB-SJ,New Brunswick,Saint John,"Gardner Creek, Nb",45.2631000,-65.7352000,Immature,,Unspecified,"","",,,,,,,S50245556,"",,,,Unsuccessfully attempted to capture Fox Sparrow. Composed itself afterwards on this stump.,Accipiter striatus,shshaw,Species,7816,,4.14,14,,2456,2625
55775691,Photo,Sharp-shinned Hawk,Accipiter striatus,,Ken McKenna,2017-04-25,2017,4,25,1100,Canada,CA-NS-PI,Nova Scotia,Pictou,"CA-NS Plymouth, E River East Side Rd",45.5551270,-62.6492310,"",,Unspecified,"","",,,,,,,S36271563,"",,,,On my deck,Accipiter striatus,shshaw,Species,7816,,3.92,24,,1255,1044
284418361,Photo,Sharp-shinned Hawk,Accipiter striatus,,Derrick Mims,2020-12-01,2020,12,1,917,United States,US-TX-029,Texas,Bexar,Culebra Creek Park,29.5002431,-98.7090275,"",,Unspecified,"","",,,,,,,S76947449,"",,,,,Accipiter striatus,shshaw,Species,7816,,4.57,7,,3001,4500
274494881,Photo,Sharp-shinned Hawk,Accipiter striatus,,Marky Mutchler,2020-10-25,2020,10,25,702,United States,US-LA-071,Louisiana,Orleans,Bayou Sauvage NWR--South Point,30.1474349,-89.8805559,"",,Unspecified,"","",,,,,,,S75408605,"",,,,,Accipiter striatus,shshaw,Species,7816,,4.33,9,,2125,3650
386617851,Photo,Sharp-shinned Hawk,Accipiter striatus,,Evan Kidd,2021-10-22,2021,10,22,813,United States,US-TN-009,Tennessee,Blount,Kyker Bottoms Refuge,35.6062971,-84.1150428,"",,Unspecified,"","",,,,,,,S96551473,"",,,,,Accipiter striatus,shshaw,Species,7896,,5.00,5,,1815,1198
372320871,Photo,Sharp-shinned Hawk (Northern),Accipiter striatus [velox Group],,Megan Gray,2021-09-22,2021,9,22,615,United States,US-MA-023,Massachusetts,Plymouth,Manomet Bird Observatory,41.9210050,-70.5442548,"",,Unspecified,"","",,,,,,,S95046771,"",,,,Banded,Accipiter striatus,shshaw2,Group,7901,,5.00,5,,3487,5231
342748571,Photo,Sharp-shinned Hawk (Caribbean),Accipiter striatus [striatus Group],,Roberto Jovel,2021-05-14,2021,5,14,645,Cuba,CU-14,Guantánamo,,Parque Nacional Alejandro de Humboldt,20.5020474,-74.6759077,Adult Female – 1,Molting,Unspecified,"","",,,,,,,S89069205,"",,,"This is the Cuban endemic subspecies, Accipiter striatus fringilloides.","This bird is not rare for this date and location. This area is the bird's natural habitat. This is the Cuban endemic Accipiter striatus fringilloides.",Accipiter striatus,shshaw1,Group,7897,,5.00,5,"",2126,1417
340684041,Photo,Sharp-shinned Hawk,Accipiter striatus,,Ian Routley,2021-05-20,2021,5,20,1735,Canada,CA-BC-SL,British Columbia,Squamish-Lillooet,Lillooet--Pineridge Road,50.6831927,-121.9142961,Adult – 1,,Unspecified,"","",,,,,,,S88629389,"",,,,Spotted by Vivian,Accipiter striatus,shshaw,Species,7816,,5.00,5,,3298,2100
328180981,Photo,Sharp-shinned Hawk,Accipiter striatus,,Daniel Eslake,2021-04-18,2021,4,18,1610,Canada,CA-BC-SL,British Columbia,Squamish-Lillooet,Owl Ridge Home,50.3539430,-122.7133180,"",,Unspecified,"","",,,,,,,S85933981,"",,,,,Accipiter striatus,shshaw,Species,7816,,5.00,5,,1365,2048
325450451,Photo,Sharp-shinned Hawk,Accipiter striatus,,Adam Perrier,2021-04-11,2021,4,11,1028,Canada,CA-YT-YT,Yukon Territory,Yukon,Carcross--townsite,60.1673899,-134.7066307,"",,Unspecified,"","",,,,,,,S85347191,"",,,,,Accipiter striatus,shshaw,Species,7816,,5.00,5,,2512,3768
315523241,Photo,Sharp-shinned Hawk,Accipiter striatus,,Jason Barcus,2021-03-10,2021,3,10,1300,United States,US-MA-017,Massachusetts,Middlesex,Newton St. Yard,42.3782752,-71.1627594,"",,Unspecified,"","",,,,,,,S83155500,"",,,,,Accipiter striatus,shshaw,Species,7816,,5.00,5,,2516,2842
296665601,Photo,Sharp-shinned Hawk,Accipiter striatus,,Harold Ziolkowski,2021-01-10,2021,1,10,1055,United States,US-MT-031,Montana,Gallatin,Belgrade,45.7819505,-111.1837649,"",,Unspecified,"","",,,,,,,S79059846,"",,,Diving into the garden gooseberry bush in an unsuccessful attempt to catch sparrows.,"Diving into the garden gooseberry bush in an unsuccessful attempt to catch sparrows.  I added some additional photos of this hawk when there was some question about the ID on this accipiter.  I think they clearly point to Sharp-shinned Hawk.  This hawk was posted on Raptor ID on Facebook where there were no supporting statements for Cooper's Hawk.",Accipiter striatus,shshaw,Species,7816,,5.00,5,,3084,4626
280340971,Photo,Sharp-shinned Hawk,Accipiter striatus,,Tom Warren,2020-11-15,2020,11,15,845,United States,US-NY-119,New York,Westchester,"The Landing, Dobbs Ferry",41.0185489,-73.8786125,"",,Unspecified,"","",,,,,,,S76301948,"",,,,This was a first-time sighting for me for the woods behind our town home. Hawk was perched near our bird feeder. An Eastern gray squirrel sounded the alarm and this beautiful hawk took off after I watched it for about 15 minutes. Amazing-looking bird!,Accipiter striatus,shshaw,Species,7896,,5.00,5,,2500,1819
230664081,Photo,Sharp-shinned Hawk (Northern),Accipiter striatus [velox Group],,Dan Burton,2020-05-03,2020,5,3,540,United States,US-MA-001,Massachusetts,Barnstable,Race Point,42.0691855,-70.2381706,"",,Unspecified,"","",,,,,,,S68407776,"",,,,"High and careful count; primarily immature birds headed northbound. Definitely a product of the date and steady +20mph SW winds. Very impressive flight right in the parking lot, many birds were flying very low over the dunes. Sadly no sign of the BLVU’s, a bird we were hoping for.",Accipiter striatus,shshaw2,Group,7821,,5.00,5,,2180,3288
205537501,Photo,Sharp-shinned Hawk (Northern),Accipiter striatus [velox Group],,Gordon Johnston,2019-02-19,2019,2,19,0,Canada,CA-ON-OT,Ontario,Ottawa,Ottawa--Fletcher Wildlife Garden,45.3856416,-75.7021952,"",,Unspecified,"","",,IBC1563537,,,,,S65113188,"",,,"Sharp-shinned Hawk immature. Elevation: 74 m. Date added to IBC: February 20, 2019.",IBC scientific name: Accipiter striatus velox.,Accipiter striatus,shshaw2,Group,7901,,5.00,5,,1080,1025
143366281,Photo,Sharp-shinned Hawk,Accipiter striatus,,Owen Sinkus,2019-03-02,2019,3,2,656,United States,US-NM-001,New Mexico,Bernalillo,Rio Grande Nature Center SP,35.1300000,-106.6830000,"",,Unspecified,"","",,,,,,,S53292370,"",,,,Banded. Watched for a bit afterwards while he flew around.,Accipiter striatus,shshaw,Species,7896,,5.00,5,,2000,3008
125588671,Photo,Sharp-shinned Hawk,Accipiter striatus,,Harold Ziolkowski,2018-11-27,2018,11,27,1448,United States,US-MT-031,Montana,Gallatin,Belgrade,45.7819505,-111.1837649,Adult,,Unspecified,"","",,,,,,,S50266423,"",,,,,Accipiter striatus,shshaw,Species,7816,,5.00,5,,3437,5155
119595621,Photo,Sharp-shinned Hawk,Accipiter striatus,,Luc Tremblay,2018-04-08,2018,4,8,1205,Canada,CA-QC-MR,Quebec,Montréal,"Chez moi, Dollard-des-Ormeaux",45.4826000,-73.8250000,"","",Unspecified,"","",,,,,,,S44384722,"",,,"Un Épervier brun repu et un Moineau domestique de moins!  Un moineau pèse 20% du poids d'un épervier, c'est comme manger seul une dinde de 30 livres...",,Accipiter striatus,shshaw,Species,7896,,5.00,5,"Dead; Multiple species",2936,1957
82254171,Photo,Sharp-shinned Hawk,Accipiter striatus,,Donald Codling,2018-01-16,2018,1,16,750,Canada,CA-NS-HL,Nova Scotia,Halifax,"Codling yard, Sackville",44.7745487,-63.7022757,Juvenile Male,,Unspecified,"","",,,,,,,S41978036,"",,,,,Accipiter striatus,shshaw,Species,7816,,5.00,5,,3000,4000
81227141,Photo,Sharp-shinned Hawk,Accipiter striatus,,Susan Freemire,2018-01-08,2018,1,8,1320,United States,US-MI-025,Michigan,Calhoun,US-MI-Battle Creek- Home Yard,42.3053410,-85.2019900,"",,Unspecified,"","",,,,,,,S41761021,"",,,,"First time yard bird.  At first thought it was the Cooper's hawk that's been hanging around, but this hawk seemed smaller and had a different head shape, and feather markings down it's chest.",Accipiter striatus,shshaw,Species,7816,,5.00,5,,2222,3278
41949451,Photo,Sharp-shinned Hawk,Accipiter striatus,,Daniel Hunt,2016-11-26,2016,11,26,840,United States,US-ID-005,Idaho,Bannock,Hunt,42.8897280,-112.3776034,Adult,,Unspecified,"","",,,,,,,S32901849,"",,,Allowed me to approach to about 15 feet,,Accipiter striatus,shshaw,Species,7816,,5.00,5,,1712,2288
124447371,Photo,Sharp-shinned Hawk,Accipiter striatus,,LAURA FRAZIER,2018-11-18,2018,11,18,1036,United States,US-WV-037,West Virginia,Jefferson,US-West Virginia-Kearneysville-388 Paulas Circle - 39.282x-77.993,39.2815235,-77.9929643,"",,Unspecified,"","",,,,,,,S50021570,"",,,,"Landed right at the feeders, all the birds scattered so it did not get a meal",Accipiter striatus,shshaw,Species,7896,,4.57,7,,5000,3333
278498461,Photo,Sharp-shinned Hawk,Accipiter striatus,,J Tanner,2019-12-21,2019,12,21,900,United States,US-CA-001,California,Alameda,Coyote Hills Regional Park,37.5537640,-122.0875025,"",,Unspecified,"","",,,,,,,S76025010,"",,,,,Accipiter striatus,shshaw,Species,7816,,4.38,8,,1200,1800
226639991,Photo,Sharp-shinned Hawk,Accipiter striatus,,Ryan Zucker,2019-10-12,2019,10,12,649,United States,US-NJ-009,New Jersey,Cape May,Cape Island--Higbee Beach WMA--Dike/Morning Flight Songbird Count,38.9637983,-74.9606180,"",,Unspecified,"","",,,,,,,S60706051,"",,,,,Accipiter striatus,shshaw,Species,7896,,4.38,8,,1422,2528
186506351,Photo,Sharp-shinned Hawk,Accipiter striatus,,Jorge Eduardo  Ruano,2019-10-12,2019,10,12,938,Belize,BZ-CY,Cayo,,Mountain Pine Ridge--Cooma Cairn,16.9986884,-88.8480558,"",,Unspecified,"","",,,,,,,S60569240,"",,,,,Accipiter striatus,shshaw,Species,7816,,3.94,17,,1175,1763
274494401,Photo,Sharp-shinned Hawk,Accipiter striatus,,Marky Mutchler,2020-10-25,2020,10,25,702,United States,US-LA-071,Louisiana,Orleans,Bayou Sauvage NWR--South Point,30.1474349,-89.8805559,"",,Unspecified,"","",,,,,,,S75408605,"",,,,,Accipiter striatus,shshaw,Species,7816,,4.22,9,,1967,3240
48054371,Photo,Sharp-shinned Hawk,Accipiter striatus,,Kathy Kaczynski,2017-02-10,2017,2,10,1310,United States,US-MI-089,Michigan,Leelanau,*Birdwood (private),44.8823036,-85.8064338,"",,Unspecified,"","",,,,,,,S34302559,"",,,,"Probably same bird that's been visiting our feeders for weeks.",Accipiter striatus,shshaw,Species,7816,,3.79,29,,3456,4608
393173281,Photo,Sharp-shinned Hawk,Accipiter striatus,,Briana Fisher,2021-11-29,2021,11,29,1433,United States,US-MI-093,Michigan,Livingston,"Fisher's Lamb Lake Property",42.7494440,-83.8668510,"",,Unspecified,"","",,,,,,,S98323148,"",,,,,Accipiter striatus,shshaw,Species,7896,,4.67,6,,1826,2738
308969501,Photo,Sharp-shinned Hawk,Accipiter striatus,,Jean-Sébastien Guénette,2021-02-17,2021,2,17,830,Canada,CA-QC-MR,Quebec,Montréal,Jardin botanique de Montréal (accès restreint),45.5596562,-73.5626078,Adult – 1,,Unspecified,"","",,,,,,,S81815727,"",,,,,Accipiter striatus,shshaw,Species,7816,,4.67,6,,2400,1600
306504171,Photo,Sharp-shinned Hawk,Accipiter striatus,,Jeff Percell,2021-02-11,2021,2,11,1420,United States,US-CO-123,Colorado,Weld,"Percell Backyard, Northridge, Erie, Colorado, US (40.065, -105.042)",40.0646218,-105.0421449,"",Foraging or Eating,Unspecified,"","",,,,,,,S80831296,"",,,,"Continuing bird, observed at exact same place and time of day 48 hours earlier. Consuming a Robin in the garden. Appeared to have uniform length tail feathers, uniform color nape, smaller head with skinny legs.",Accipiter striatus,shshaw,Species,7816,,4.67,6,"",3456,4608
296962721,Photo,Sharp-shinned Hawk,Accipiter striatus,,James Moodie,2021-01-09,2021,1,9,1249,United States,US-OR-017,Oregon,Deschutes,Deschutes River Trail--Old Mill (Mill A  and  Loggers Loops),44.0450640,-121.3164210,Immature Male – 1,Flying,Unspecified,"","",,,,,,,S78969057,"",,,,,Accipiter striatus,shshaw,Species,7896,,4.67,6,"",2564,3846
293655181,Photo,Sharp-shinned Hawk,Accipiter striatus,,Josh  Houck,2021-01-02,2021,1,2,1015,United States,US-PA-075,Pennsylvania,Lebanon,State Game Lands 145--Colebrook,40.2426970,-76.5236512,"",,Unspecified,"","",,,,,,,S78478996,"",,,,,Accipiter striatus,shshaw,Species,7896,,4.67,6,,2602,3903
293637791,Photo,Sharp-shinned Hawk,Accipiter striatus,,Thomas Burns,2021-01-02,2021,1,2,1200,United States,US-MN-053,Minnesota,Hennepin,Minnetonka-MN-Home,44.9401699,-93.4841761,"",,Unspecified,"","",,,,,,,S78467785,"",,,Mantling on a Northern Cardinal killed at our feeders.,,Accipiter striatus,shshaw,Species,7896,,4.67,6,,4360,7752
286970881,Photo,Sharp-shinned Hawk,Accipiter striatus,,Jorge Montalvo,2020-12-10,2020,12,10,1000,United States,US-NY-119,New York,Westchester,Marshlands Conservancy,40.9531117,-73.7012273,"",,Unspecified,"","",,,,,,,S77319252,"",,,,,Accipiter striatus,shshaw,Species,7896,,4.67,6,,1513,2102
185611981,Photo,Sharp-shinned Hawk,Accipiter striatus,,Gary Swant,2019-11-02,2019,11,2,1200,United States,US-MT-077,Montana,Powell,"800 St Marys Ave, Deer Lodge US-MT (46.3951,-112.7269)",46.3951120,-112.7268710,"",,Unspecified,"","",,,,,,,S61131752,"",,,,,Accipiter striatus,shshaw,Species,7816,,4.67,6,,1124,1492
83582711,Photo,Sharp-shinned Hawk,Accipiter striatus,,Jason Vassallo,2018-01-27,2018,1,27,1203,United States,US-CA-085,California,Santa Clara,TJ Martin Park,37.2327202,-121.8897915,"",,Unspecified,"","",,,,,,,S42287129,"",,,,,Accipiter striatus,shshaw,Species,7816,,4.67,6,,1920,3097
95768931,Photo,Sharp-shinned Hawk,Accipiter striatus,,Stephen Fettig,2018-04-15,2018,4,15,730,United States,US-CA-067,California,Sacramento,"CA Sacramento, Meiss Road, eastern end",38.4392974,-121.0750126,Immature,,Unspecified,"","",,,,,,,S44618065,"",,,SSHA eating a SAVS.,"SY bird, caught and eat a SAVS.",Accipiter striatus,shshaw,Species,7816,,4.43,7,,864,1296
277401791,Photo,Sharp-shinned Hawk,Accipiter striatus,,Anonymous,2020-11-04,2020,11,4,730,Canada,CA-ON-HU,Ontario,Huron,The Bluff,43.3793330,-81.7143510,"",Flying,Unspecified,"","",,,,,,,S75821414,"",,,,,Accipiter striatus,shshaw,Species,7816,,4.30,10,"",1308,2038
369503111,Photo,Sharp-shinned Hawk,Accipiter striatus,,Annie Lavoie,2021-09-14,2021,9,14,635,Canada,CA-QC-FS,Quebec,Le Fjord-du-Saguenay,"Saint-Félix-d'Otis - Chalet",48.2935450,-70.6377080,"",,Unspecified,"","",,,,,,,S94662252,"",,,,,Accipiter striatus,shshaw,Species,7896,,4.67,6,,3108,4287
175513951,Photo,Sharp-shinned Hawk,Accipiter striatus,,Chris Charlesworth,2019-09-02,2019,9,2,718,Canada,CA-BC-CO,British Columbia,Central Okanagan,West Kelowna--Seclusion Bay,49.8017518,-119.6608543,"",,Unspecified,"","",,,,,,,S59458226,"",,,,Immature,Accipiter striatus,shshaw,Species,7816,,4.67,6,,580,900
52855401,Photo,Sharp-shinned Hawk,Accipiter striatus,,Karen Lebing,2017-03-30,2017,3,30,700,United States,US-NC-055,North Carolina,Dare,Waves soundfront,35.5622821,-75.4715037,"",,Unspecified,"","",,,,,,,S35543102,"",,,,,Accipiter striatus,shshaw,Species,7896,,4.67,6,,2682,3630
50232581,Photo,Sharp-shinned Hawk,Accipiter striatus,,Steven Mlodinow,2015-01-24,2015,1,24,1111,United States,US-AZ-023,Arizona,Santa Cruz,"Paton Center for Hummingbirds (Patons' Yard)",31.5390131,-110.7606337,Adult,,Unspecified,"","",,,,,,,S21517484,"",,,,,Accipiter striatus,shshaw,Species,7896,,4.67,6,,2605,3173
77638451,Photo,Sharp-shinned Hawk,Accipiter striatus,,Ken Orich,2017-12-08,2017,12,8,930,Canada,CA-AB-TW,Alberta,Lethbridge,Lethbridge (6th Street North),49.7145877,-112.8378510,"",,Unspecified,"","",,,,,,,S40989175,"",,,,The hawk was successful again this morning catching a House Sparrow.,Accipiter striatus,shshaw,Species,7816,,4.22,9,,3456,4608
379366971,Photo,Sharp-shinned Hawk,Accipiter striatus,,Byron Stone,2014-10-11,2014,10,11,815,United States,US-MN-137,Minnesota,St. Louis,Hawk Ridge Nature Reserve,46.8469659,-92.0315212,Adult – 1,Flying,Unspecified,"","",,,,,,,S20202952,"",,,,,Accipiter striatus,shshaw,Species,7896,,4.38,8,"",1065,1597
298824361,Photo,Sharp-shinned Hawk,Accipiter striatus,,Kimberly Berry,2021-01-17,2021,1,17,1337,United States,US-PA-019,Pennsylvania,Butler,Seven Hills Rd,40.9794445,-79.8008895,Immature – 1,Foraging or Eating,Unspecified,"","",,,,,,,S79460092,"",,,,"Barreled through feeders and caught Starling. Starling tried to fight back, but eventually was carried off by the Sharpie",Accipiter striatus,shshaw,Species,7896,,4.38,8,"",2602,3252
350653421,Photo,Sharp-shinned Hawk (Northern),Accipiter striatus [velox Group],,Derek Lecy,2020-09-26,2020,9,26,1306,United States,US-CA-041,California,Marin,Hawk Hill,37.8281456,-122.4991411,Juvenile Male – 1,Flying,Unspecified,"","",,,,,,,S74103598,"",,,,Tally. Good looks at juvenile male above.,Accipiter striatus,shshaw2,Group,7901,,4.43,7,"",2089,3133
144242861,Photo,Sharp-shinned Hawk,Accipiter striatus,,Mary McSparen,2019-03-06,2019,3,6,1223,United States,US-AZ-013,Arizona,Maricopa,Seven Springs Recreation Area,33.9662100,-111.8620800,"",,Unspecified,"","",,,,,,,S53555969,"",,,,,Accipiter striatus,shshaw,Species,7816,,4.43,7,,2678,2817
186506391,Photo,Sharp-shinned Hawk,Accipiter striatus,,Jorge Eduardo  Ruano,2019-10-12,2019,10,12,938,Belize,BZ-CY,Cayo,,Mountain Pine Ridge--Cooma Cairn,16.9986884,-88.8480558,"",,Unspecified,"","",,,,,,,S60569240,"",,,,,Accipiter striatus,shshaw,Species,7816,,3.83,18,,1592,2388
394462981,Photo,Sharp-shinned Hawk,Accipiter striatus,,Patrick Maurice,2021-10-15,2021,10,15,636,United States,US-NJ-009,New Jersey,Cape May,Cape Island--CMP--Coral Ave. dune crossing,38.9327948,-74.9651502,"",,Unspecified,"","",,,,,,,S96182454,"",,,,,Accipiter striatus,shshaw,Species,7896,,4.80,5,,1624,2436
322157401,Photo,Sharp-shinned Hawk,Accipiter striatus,,Laure Wilson Neish,2021-04-02,2021,4,2,1235,Canada,CA-ON-MI,Ontario,Middlesex,Home - Westmount,42.9544699,-81.2990869,Adult – 1,,Unspecified,"","",,,,,,,S84610004,"",,,,,Accipiter striatus,shshaw,Species,7816,,4.80,5,,1402,1188
309701811,Photo,Sharp-shinned Hawk,Accipiter striatus,,David M. Bell,2020-10-14,2020,10,14,649,Canada,CA-BC-CP,British Columbia,Capital,Rocky Point Bird Observatory (restricted access),48.3198007,-123.5471500,"",,Unspecified,"","",,,,,,,S74834491,"",,,,,Accipiter striatus,shshaw,Species,7816,,4.80,5,,3093,4639
299777121,Photo,Sharp-shinned Hawk,Accipiter striatus,,Ken Miracle,2021-01-19,2021,1,19,940,United States,US-ID-039,Idaho,Elmore,Ted Trueblood WMA,43.0112374,-116.1104680,Immature – 1,,Unspecified,"","",,,,,,,S79622740,"",,,,,Accipiter striatus,shshaw,Species,7896,,4.80,5,,2986,4577
286970911,Photo,Sharp-shinned Hawk,Accipiter striatus,,Jorge Montalvo,2020-12-10,2020,12,10,1000,United States,US-NY-119,New York,Westchester,Marshlands Conservancy,40.9531117,-73.7012273,"",,Unspecified,"","",,,,,,,S77319252,"",,,,,Accipiter striatus,shshaw,Species,7816,,4.80,5,,2400,1644
263255191,Photo,Sharp-shinned Hawk,Accipiter striatus,,Annie Lavoie,2020-09-16,2020,9,16,1323,Canada,CA-QC-FS,Quebec,Le Fjord-du-Saguenay,"Saint-Félix-d'Otis - Chalet",48.2939438,-70.6373638,"",,Unspecified,"","",,,,,,,S73682300,"",,,,"Depuis 10 h ce matin qu'il essaie d'attraper un geai bleu, il manque de technique le jeune , il fait des piqués vers sa proie en lâchant des cris, de temps à autre il frôle sa cible, mais toujours sans succès. Habituellement en la présence d'un accipiter les geais sont sur le qui-vive et sonnent l'alarme, mais là aucun signe de stress, ils continuent à s'alimenter aux mangeoires.",Accipiter striatus,shshaw,Species,7816,,4.80,5,,3712,5568
245103211,Photo,Sharp-shinned Hawk,Accipiter striatus,,Jerry Liguori,2015-10-03,2015,10,3,0,United States,US-NV-007,Nevada,Elko,Goshutes Hawkwatch,40.4253985,-114.2709489,Juvenile – 1,,Unspecified,"","",,,,,,,S65327136,"",,,,,Accipiter striatus,shshaw,Species,7896,,4.80,5,,1398,2125
213620931,Photo,Sharp-shinned Hawk,Accipiter striatus,,William Higgins,2020-03-05,2020,3,5,815,United States,US-AZ-019,Arizona,Pima,Mt. Lemmon--Rose Canyon and Lake,32.3926274,-110.7024693,"",,Unspecified,"","",,,,,,,S65471212,"",,,,,Accipiter striatus,shshaw,Species,7896,,4.80,5,,3313,4773
209450371,Photo,Sharp-shinned Hawk,Accipiter striatus,,John Longhenry,2020-02-15,2020,2,15,1500,United States,US-IL-201,Illinois,Winnebago,Ellsworth Street,42.2849290,-89.0778780,"",,Unspecified,"","",,,,,,,S64538698,"",,,,"Looks to be an SY male, based upon eye color, that took a Northern Cardinal along the side yard of the house. Small accipiter, yellow eyes, black appearing on the nape, tear drop shaped cooper/ lgt brown spots on breast, brown back and head with light brown fringes on the feather edges.   Pictures attached.",Accipiter striatus,shshaw,Species,7816,,4.80,5,,3028,4812
185432281,Photo,Sharp-shinned Hawk,Accipiter striatus,,Martina Nordstrand,2019-10-12,2019,10,12,649,United States,US-NJ-009,New Jersey,Cape May,Cape Island--Higbee Beach WMA--Dike/Morning Flight Songbird Count,38.9637983,-74.9606180,"",,Unspecified,"","",,,,,,,S60706340,"",,,,,Accipiter striatus,shshaw,Species,7896,,4.80,5,,1723,2584
119702661,Photo,Sharp-shinned Hawk,Accipiter striatus,,Ryan Leys,2018-10-13,2018,10,13,900,Canada,CA-ON-EL,Ontario,Elgin,Hawk Hut,42.6824050,-81.1661410,"","",Unspecified,"","",,,,,,,S49170543,"",,,,Banded 4.,Accipiter striatus,shshaw,Species,7896,,4.80,5,In-hand,3024,3024
96924781,Photo,Sharp-shinned Hawk,Accipiter striatus,,Brian Miller,2018-04-28,2018,4,28,830,United States,US-NY-045,New York,Jefferson,Perch River WMA - Cooke Rd,44.0865692,-75.9431365,Immature,,Unspecified,"","",,,,,,,S45036933,"",,,,,Accipiter striatus,shshaw,Species,7816,,4.80,5,,1792,2690
89005901,Photo,Sharp-shinned Hawk,Accipiter striatus,,Larry Therrien,2018-03-09,2018,3,9,1032,United States,US-MA-015,Massachusetts,Hampshire,Griffiths yard,42.2395273,-72.3668146,"",,Unspecified,"","",,,,,,,S43501871,"",,,,,Accipiter striatus,shshaw,Species,7816,,4.80,5,,3456,5184
77241261,Photo,Sharp-shinned Hawk,Accipiter striatus,,Scott Martin,2017-12-04,2017,12,4,830,United States,US-MA-005,Massachusetts,Bristol,Demarest Lloyd SP,41.5271179,-70.9857559,"",,Unspecified,"","",,,,,,,S40913470,"",,,,,Accipiter striatus,shshaw,Species,7816,,4.80,5,,1469,2200
69225661,Photo,Sharp-shinned Hawk,Accipiter striatus,,Steven Hunter,2017-09-16,2017,9,16,745,United States,US-CA-041,California,Marin,Hawk Hill,37.8281456,-122.4991411,Juvenile Female,,Unspecified,"","",,,,,,,S39216719,"",,,"BIH! Trapped and banded by GGRO, then released as part of a show and tell. I got this while the GGRO docent was holding the bird.",,Accipiter striatus,shshaw,Species,7816,,4.80,5,,3888,5184
298824681,Photo,Sharp-shinned Hawk,Accipiter striatus,Sturnus vulgaris -- European Starling,Kimberly Berry,2021-01-17,2021,1,17,1337,United States,US-PA-019,Pennsylvania,Butler,Seven Hills Rd,40.9794445,-79.8008895,Immature – 1,Foraging or Eating,Unspecified,"","",,,,,,,S79460092,"",,,,"Barreled through feeders and caught Starling. Starling tried to fight back, but eventually was carried off by the Sharpie",Accipiter striatus,shshaw,Species,7896,,4.38,8,"",3456,4608
31497031,Photo,Sharp-shinned Hawk,Accipiter striatus,,Carl & Judi Manning,2016-07-20,2016,7,20,1730,United States,US-MI-139,Michigan,Ottawa,Amaze! (Private),42.8463430,-86.2037604,"",,Unspecified,"","",,,,,,,S30806254,"",,,,Small jay size accipiter with squarish tail tip without white tip.,Accipiter striatus,shshaw,Species,7816,,3.81,21,,2119,2074
316894661,Photo,Sharp-shinned Hawk,Accipiter striatus,,Guy Stevens,2021-03-13,2021,3,13,1534,Canada,CA-NS-KI,Nova Scotia,Kings,"Woodside, North Mountain",45.1862815,-64.4499562,"",,Unspecified,"","",,,,,,,S83333614,"",,,,,Accipiter striatus,shshaw,Species,7896,,4.20,10,,1474,981
139761581,Photo,Sharp-shinned Hawk,Accipiter striatus,,Jim Merritt,2019-02-09,2019,2,9,700,United States,US-CO-041,Colorado,El Paso,Red Rock Canyon Open Space,38.8473432,-104.8811263,"","",Unspecified,"","",,,,,,,S52519107,"",,,,,Accipiter striatus,shshaw,Species,7816,,4.43,7,Habitat,2544,2356
274494561,Photo,Sharp-shinned Hawk,Accipiter striatus,,Marky Mutchler,2020-10-25,2020,10,25,702,United States,US-LA-071,Louisiana,Orleans,Bayou Sauvage NWR--South Point,30.1474349,-89.8805559,"",,Unspecified,"","",,,,,,,S75408605,"",,,,,Accipiter striatus,shshaw,Species,7816,,4.11,9,,2363,3774
112614901,Photo,Sharp-shinned Hawk,Accipiter striatus,,Annie Lavoie,2018-08-27,2018,8,27,749,Canada,CA-QC-FS,Quebec,Le Fjord-du-Saguenay,"Saint-Félix d'Otis - Lac Otis",48.2903248,-70.6386942,"",,Unspecified,"","",,,,,,,S48117989,"",,,,,Accipiter striatus,shshaw,Species,7816,,4.11,9,,3010,4385
279508971,Photo,Sharp-shinned Hawk,Accipiter striatus,,Mary Clausen,2020-11-12,2020,11,12,1329,United States,US-NE-153,Nebraska,Sarpy,Monterrey Drive Yard,41.1888774,-96.0510045,"",,Unspecified,"","",,,,,,,S76164936,"",,,,,Accipiter striatus,shshaw,Species,7816,,4.50,6,,1512,1080
73593601,Photo,Sharp-shinned Hawk,Accipiter striatus,,Dan Tallman,2017-10-30,2017,10,30,1243,United States,US-MN-131,Minnesota,Rice,Northfield: Taylor Court,44.4360168,-93.1744051,Immature Female,,Unspecified,"","",,,,,,,S40214904,"",,,,,Accipiter striatus,shshaw,Species,7816,,4.25,8,,2385,1772
294708481,Photo,Sharp-shinned Hawk,Accipiter striatus,,Cynthia Burkhart,2021-01-04,2021,1,4,1223,United States,US-WV-085,West Virginia,Ritchie,Burkhart/Williams residence,39.2262548,-81.1255148,"",,Unspecified,"","",,,,,,,S78695552,"",,,,"Saw first one I in hawthorn tree in front yard.  Took pics.  It then flew across yard, swooped onto porch straight towards front window, turned, and flew off.  Twenty-five minutes later, I noticed one perched on platform feeder in front garden.  The first hawk had very noticeable white spots on right wing, which  I can’t see on photos of second bird.  So, two different SSHA?",Accipiter striatus,shshaw,Species,7816,,4.29,7,,1958,2924
91969201,Photo,Sharp-shinned Hawk,Accipiter striatus,,Devin Griffiths,2018-03-09,2018,3,9,910,United States,US-MA-015,Massachusetts,Hampshire,Oakwood Dr.,42.2389612,-72.3677158,"",,Unspecified,"","",,,,,,,S43499431,"",,,,,Accipiter striatus,shshaw,Species,7816,,4.11,9,,3055,4582
381623321,Photo,Sharp-shinned Hawk,Accipiter striatus,,Christopher Moser-Purdy,2021-09-28,2021,9,28,817,Canada,CA-ON-NF,Ontario,Norfolk,Long Point--LPBO Old Cut Field Station,42.5829243,-80.3983998,"",,Unspecified,"","",,,,,,,S95304884,"",,,,,Accipiter striatus,shshaw,Species,7896,,4.50,6,,3456,5184
275830801,Photo,Sharp-shinned Hawk,Accipiter striatus,,Jessé Roy-Drainville,2020-10-30,2020,10,30,700,Canada,CA-QC-HC,Quebec,La Haute-Côte-Nord,"Observatoire d'oiseaux de Tadoussac--Dunes",48.1579631,-69.6649504,"",,Unspecified,"","",,,,,,,S75610830,"",,,,5000e épervier de la saison!,Accipiter striatus,shshaw,Species,7816,,4.50,6,,1448,1930
188813061,Photo,Sharp-shinned Hawk,Accipiter striatus,,Timothy Piranian,2019-11-18,2019,11,18,1300,United States,US-AK-170,Alaska,Matanuska-Susitna,990North Clonial Drive,61.5900121,-149.3094944,"",,Unspecified,"","",,,,,,,S61595665,"",,,,,Accipiter striatus,shshaw,Species,7816,,4.50,6,,2448,3264
249144391,Photo,Sharp-shinned Hawk,Accipiter striatus,,Liam Huber,2020-07-12,2020,7,12,900,United States,US-CA-007,California,Butte,"California, US (39.824, -121.339)",39.8238365,-121.3390126,"",,Unspecified,"","",,,,,,,S71410167,"",,,,,Accipiter striatus,shshaw,Species,7816,,4.29,7,,2191,3280
211911491,Photo,Sharp-shinned Hawk,Accipiter striatus,,Brad Jacobs,2020-02-26,2020,2,26,645,United States,US-MO-019,Missouri,Boone,RBJs Place,38.8871070,-92.1697890,"",,Unspecified,"","",,,,,,,S65149674,"",,,,,Accipiter striatus,shshaw,Species,7896,,4.29,7,,800,800
50982091,Photo,Sharp-shinned Hawk,Accipiter striatus,,Teresa Dolman,2017-03-12,2017,3,12,1000,Canada,CA-AB-TW,Alberta,Lethbridge,Lethbridge - Varsity Village,49.6710174,-112.8728897,"",,Unspecified,"","",,,,,,,S35144831,"",,,,"Hung around the feeders for about an hour. its yellow eyes indicate that it's an immature bird.",Accipiter striatus,shshaw,Species,7896,,4.29,7,,2904,2341
47197171,Photo,Sharp-shinned Hawk,Accipiter striatus,,Steve Kruse,2017-02-01,2017,2,1,1130,United States,US-NE-109,Nebraska,Lancaster,Pioneers Park,40.7778604,-96.7609477,"",,Unspecified,"","",,,,,,,S34094349,"",,,,"Very small 10 - 11""  / Small pencil like legs / Thick rufous colored stripes extend down belly - Juv.",Accipiter striatus,shshaw,Species,7816,,4.29,7,,3354,5029
55648461,Photo,Sharp-shinned Hawk,Accipiter striatus,,Serg Tremblay,2017-04-24,2017,4,24,730,Canada,CA-QC-SAG,Quebec,Saguenay,"La Baie, 803 rue Boily",48.3394247,-70.8965768,"",,Unspecified,"","",,,,,,,S36232982,"",,,,,Accipiter striatus,shshaw,Species,7816,,3.79,14,,3967,2645
299048731,Photo,Sharp-shinned Hawk,Accipiter striatus,,Jack & Holly Bartholmai,2021-01-18,2021,1,18,50,United States,US-WI-027,Wisconsin,Dodge,Hickory Springs,43.4555591,-88.7719372,Adult – 1,Foraging or Eating,Unspecified,"","",,,,,,,S79499555,"",,,,,Accipiter striatus,shshaw,Species,7816,,4.12,8,"",2103,2631
91556331,Photo,Sharp-shinned Hawk,Accipiter striatus,,Keith Leland,2018-03-26,2018,3,26,729,United States,US-CA-045,California,Mendocino,US-CA-Redwood Valley-7500 Uva Dr - 39.2471x-123.2150,39.2471330,-123.2150060,Juvenile,,Unspecified,"","",,,,,,,S43975501,"",,,,,Accipiter striatus,shshaw,Species,7816,,4.12,8,,1991,1483
385622201,Photo,Sharp-shinned Hawk,Accipiter striatus,,Nick Saunders,2021-11-05,2021,11,5,1719,Canada,CA-SK-EL,Saskatchewan,Saskatoon,"Backyard, McConnell Avenue",52.0952860,-106.6618630,"",,Unspecified,"","",,,,,,,S97177865,"",,,,Adult,Accipiter striatus,shshaw,Species,7896,,5.00,4,,911,1200
382772941,Photo,Sharp-shinned Hawk (Northern),Accipiter striatus [velox Group],,Ian Davies,2021-09-07,2021,9,7,1235,United States,US-MN-137,Minnesota,St. Louis,Hawk Ridge Nature Reserve--Summit Ledges,46.8525610,-92.0280710,"",,Unspecified,"","",,,,,,,S94387178,"",,,,,Accipiter striatus,shshaw2,Group,7901,,5.00,4,,2065,3134
372320851,Photo,Sharp-shinned Hawk (Northern),Accipiter striatus [velox Group],,Megan Gray,2021-09-22,2021,9,22,615,United States,US-MA-023,Massachusetts,Plymouth,Manomet Bird Observatory,41.9210050,-70.5442548,"",,Unspecified,"","",,,,,,,S95046771,"",,,,Banded,Accipiter striatus,shshaw2,Group,7901,,5.00,4,,2950,4425
367940291,Photo,Sharp-shinned Hawk,Accipiter striatus,,Gilles Santerre,2021-09-07,2021,9,7,1534,Canada,CA-QC-MT,Quebec,La Matanie,Camping de la rivière Matane,48.8198399,-67.5422762,"",,Unspecified,"","",,,,,,,S94411733,"",,,,,Accipiter striatus,shshaw,Species,7896,,5.00,4,,2854,4280
342748681,Photo,Sharp-shinned Hawk (Caribbean),Accipiter striatus [striatus Group],,Roberto Jovel,2021-05-14,2021,5,14,645,Cuba,CU-14,Guantánamo,,Parque Nacional Alejandro de Humboldt,20.5020474,-74.6759077,"",Molting,Unspecified,"","",,,,,,,S89069205,"",,,"This is the Cuban endemic subspecies, Accipiter striatus fringilloides.","This bird is not rare for this date and location. This area is the bird's natural habitat. This is the Cuban endemic Accipiter striatus fringilloides.",Accipiter striatus,shshaw1,Group,7897,,5.00,4,"",1512,2268
342748631,Photo,Sharp-shinned Hawk (Caribbean),Accipiter striatus [striatus Group],,Roberto Jovel,2021-05-14,2021,5,14,645,Cuba,CU-14,Guantánamo,,Parque Nacional Alejandro de Humboldt,20.5020474,-74.6759077,Adult Female – 1,Molting,Unspecified,"","",,,,,,,S89069205,"",,,"This is the Cuban endemic subspecies, Accipiter striatus fringilloides.","This bird is not rare for this date and location. This area is the bird's natural habitat. This is the Cuban endemic Accipiter striatus fringilloides.",Accipiter striatus,shshaw1,Group,7897,,5.00,4,"",1512,2268
335624411,Photo,Sharp-shinned Hawk (Caribbean),Accipiter striatus [striatus Group],,Roberto Jovel,2021-05-08,2021,5,8,830,Cuba,CU-14,Guantánamo,,Parque Nacional Alejandro de Humboldt,20.5020474,-74.6759077,"",,Unspecified,"","",,,,,,,S87557297,"",,,,"Fringilloides (Cuban). White chest, abdomen and leg feathers, with very thin gray-ferruginous bars.",Accipiter striatus,shshaw1,Group,7897,,5.00,4,,1323,1984
335624111,Photo,Sharp-shinned Hawk (Caribbean),Accipiter striatus [striatus Group],,Roberto Jovel,2021-05-08,2021,5,8,830,Cuba,CU-14,Guantánamo,,Parque Nacional Alejandro de Humboldt,20.5020474,-74.6759077,"",,Unspecified,"","",,,,,,,S87557297,"",,,,"Fringilloides (Cuban). White chest, abdomen and leg feathers, with very thin gray-ferruginous bars.",Accipiter striatus,shshaw1,Group,7897,,5.00,4,,1382,1843
324648981,Photo,Sharp-shinned Hawk,Accipiter striatus,,Serge Wolf,2021-04-09,2021,4,9,847,Canada,CA-BC-FF,British Columbia,Fraser-Fort George,Wolfs Den,53.8061251,-123.0485916,"",,Unspecified,"","",,,,,,,S85200836,"",,,,"1 (11h49 sn), 1(12h38 sn with baea), 1 (17h05 hunting and catching a DeJu)",Accipiter striatus,shshaw,Species,7816,,5.00,4,,4995,3567
317997101,Photo,Sharp-shinned Hawk,Accipiter striatus,,Krista Oswald,2021-03-17,2021,3,17,1724,Canada,CA-ON-MU,Ontario,Muskoka,Canada Home,45.3231765,-79.0999248,"",,Unspecified,"","",,,,,,,S83588886,"",,,,Will attach photo. Long legs and full dark nape of neck.,Accipiter striatus,shshaw,Species,7816,,5.00,4,,1824,2736
315523251,Photo,Sharp-shinned Hawk,Accipiter striatus,,Jason Barcus,2021-03-10,2021,3,10,1300,United States,US-MA-017,Massachusetts,Middlesex,Newton St. Yard,42.3782752,-71.1627594,"",,Unspecified,"","",,,,,,,S83155500,"",,,,,Accipiter striatus,shshaw,Species,7816,,5.00,4,,2613,2905
315523221,Photo,Sharp-shinned Hawk,Accipiter striatus,,Jason Barcus,2021-03-10,2021,3,10,1300,United States,US-MA-017,Massachusetts,Middlesex,Newton St. Yard,42.3782752,-71.1627594,"",,Unspecified,"","",,,,,,,S83155500,"",,,,,Accipiter striatus,shshaw,Species,7816,,5.00,4,,2486,2251
312479671,Photo,Sharp-shinned Hawk,Accipiter striatus,,John Jansen,2021-02-27,2021,2,27,1017,Canada,CA-BC-CO,British Columbia,Central Okanagan,Glenrosa--Gates Rd,49.8322411,-119.6701491,"",,Unspecified,"","",,,,,,,S82437228,"",,,,,Accipiter striatus,shshaw,Species,7816,,5.00,4,,2963,2116
307296151,Photo,Sharp-shinned Hawk,Accipiter striatus,,Cynthia Madsen,2021-02-13,2021,2,13,845,United States,US-CO-005,Colorado,Arapahoe,"7459 S. Tamarac Ct., Centennial Co 80112",39.5829363,-104.8924828,"",,Unspecified,"","",,,,,,,S81278990,"",,,,This sharpie visited the yard on 2 different occasions one about 10:40 AM when I heard the chickadees going crazy and then again at 3:26 PM.  A beautiful hawk that showed the eye encircled in black that Brian Wheeler mentions in his Birds of Prey of the West.,Accipiter striatus,shshaw,Species,7816,,5.00,4,,3672,4896
306504161,Photo,Sharp-shinned Hawk,Accipiter striatus,,Jeff Percell,2021-02-11,2021,2,11,1420,United States,US-CO-123,Colorado,Weld,"Percell Backyard, Northridge, Erie, Colorado, US (40.065, -105.042)",40.0646218,-105.0421449,"",Foraging or Eating,Unspecified,"","",,,,,,,S80831296,"",,,,"Continuing bird, observed at exact same place and time of day 48 hours earlier. Consuming a Robin in the garden. Appeared to have uniform length tail feathers, uniform color nape, smaller head with skinny legs.",Accipiter striatus,shshaw,Species,7816,,5.00,4,"",3456,4608
270145561,Photo,Sharp-shinned Hawk,Accipiter striatus,,Anonymous,2020-10-11,2020,10,11,730,Canada,CA-ON-HU,Ontario,Huron,The Bluff,43.3793330,-81.7143510,"",Flying,Unspecified,"","",,,,,,,S74694863,"",,,,"Holy cow cakes. T capital L counted over 1000 in a monumental effort. Probably the most amazing SSH a flight I’ve seen in Ontario. Going strong, but gaining in height, and moving in land a bit when I left",Accipiter striatus,shshaw,Species,7816,,5.00,4,"",1479,2274
247309161,Photo,Sharp-shinned Hawk,Accipiter striatus,,Jerry Liguori,1997-04-13,1997,4,13,0,United States,US-NY-055,New York,Monroe,Braddock Bay,43.3130395,-77.7153471,Adult Male – 1,"",Unspecified,"","",,,,,,,S59831292,"",,,,,Accipiter striatus,shshaw,Species,7816,,5.00,4,In-hand,1131,1800
247284311,Photo,Sharp-shinned Hawk,Accipiter striatus,,Jerry Liguori,1998-09-15,1998,9,15,0,United States,US-NV-007,Nevada,Elko,Goshutes Hawkwatch,40.4253985,-114.2709489,Adult Male – 1,"",Unspecified,"","",,,,,,,S71098956,"",,,,,Accipiter striatus,shshaw,Species,7896,,5.00,4,In-hand,1123,1800
245120671,Photo,Sharp-shinned Hawk,Accipiter striatus,,Jerry Liguori,2011-10-09,2011,10,9,0,United States,US-UT-035,Utah,Salt Lake,"Liguori's Knob",40.7054189,-111.7837225,Adult Female – 1,,Unspecified,"","",,,,,,,S70726853,"",,,,,Accipiter striatus,shshaw,Species,7816,,5.00,4,,1987,2945
245105061,Photo,Sharp-shinned Hawk,Accipiter striatus,,Jerry Liguori,2011-09-23,2011,9,23,1100,United States,US-NV-007,Nevada,Elko,Goshutes Hawkwatch,40.4253985,-114.2709489,Adult Female – 1,Flying,Unspecified,"","",,,,,,,S70011988,"",,,,,Accipiter striatus,shshaw,Species,7816,,5.00,4,"",1630,2428
245084521,Photo,Sharp-shinned Hawk,Accipiter striatus,,Jerry Liguori,2012-09-13,2012,9,13,0,United States,US-NV-007,Nevada,Elko,Goshutes Hawkwatch,40.4253985,-114.2709489,Juvenile – 1,,Unspecified,"","",,,,,,,S65339070,"",,,,,Accipiter striatus,shshaw,Species,7816,,5.00,4,,1887,2937
198670251,Photo,Sharp-shinned Hawk,Accipiter striatus,,Michael Schramm,2020-01-02,2020,1,2,1146,United States,US-OH-167,Ohio,Washington,Mound Cemetery,39.4200330,-81.4521351,"",,Unspecified,"","",,,,,,,S62914643,"",,,,,Accipiter striatus,shshaw,Species,7816,,5.00,4,,2216,2954
188813151,Photo,Sharp-shinned Hawk,Accipiter striatus,,Timothy Piranian,2019-11-18,2019,11,18,1300,United States,US-AK-170,Alaska,Matanuska-Susitna,990North Clonial Drive,61.5900121,-149.3094944,"",,Unspecified,"","",,,,,,,S61595665,"",,,,,Accipiter striatus,shshaw,Species,7816,,5.00,4,,2736,3648
178324081,Photo,Sharp-shinned Hawk,Accipiter striatus,,Barb Castell,2019-09-01,2019,9,1,716,Canada,CA-AB-SI,Alberta,Calgary,262 Ave Feeders (Restricted Access),50.8155874,-114.3183899,"",,Unspecified,"","",,,,,,,S59452179,"",,,,"2 adult, 2 juveniles chasing Blue Jays",Accipiter striatus,shshaw,Species,7816,,5.00,4,,795,1200
139461741,Photo,Sharp-shinned Hawk,Accipiter striatus,,Daniel Irons,2015-03-02,2015,3,2,730,United States,US-MD-035,Maryland,"Queen Anne's",Big water farm (Private),38.8879430,-76.1964941,"",,Unspecified,"","",,,,,,,S22141314,"",,,,,Accipiter striatus,shshaw,Species,7816,,5.00,4,,,
137022341,Photo,Sharp-shinned Hawk,Accipiter striatus,,John King,2019-01-25,2019,1,25,900,Canada,CA-ON-OT,Ontario,Ottawa,Home,45.3273192,-75.7871032,"",,Unspecified,"","",,,,,,,S52018916,"",,,,,Accipiter striatus,shshaw,Species,7816,,5.00,4,,2960,4440
109979631,Photo,Sharp-shinned Hawk,Accipiter striatus,,bellemare celine,2018-08-06,2018,8,6,1130,Canada,CA-QC-DD,Quebec,Le Domaine-du-Roy,"1260, route de Ste-Hedwidge",48.5012591,-72.3323657,"",,Unspecified,"","",,,,,,,S47699560,"",,,,,Accipiter striatus,shshaw,Species,7816,,5.00,4,,1800,1200
91971721,Photo,Sharp-shinned Hawk,Accipiter striatus,,Jane Thompson,2018-03-29,2018,3,29,0,United States,US-NV-031,Nevada,Washoe,"MY YARD, COIT DRIVE",39.5408413,-119.8723546,"",,Unspecified,"","",,,,,,,S44077941,"",,,,,Accipiter striatus,shshaw,Species,7816,,5.00,4,,2497,3330
91968921,Photo,Sharp-shinned Hawk,Accipiter striatus,,Devin Griffiths,2018-03-09,2018,3,9,910,United States,US-MA-015,Massachusetts,Hampshire,Oakwood Dr.,42.2389612,-72.3677158,"",,Unspecified,"","",,,,,,,S43499431,"",,,,,Accipiter striatus,shshaw,Species,7816,,5.00,4,,3194,4791
65065001,Photo,Sharp-shinned Hawk,Accipiter striatus,,Sue Barth,2013-04-14,2013,4,14,715,United States,US-NY-029,New York,Erie,Birdsong Parklands,42.7530261,-78.7214375,"",,Unspecified,"","",,,,,,,S13742466,"",,,,,Accipiter striatus,shshaw,Species,7896,,5.00,4,,1400,2100
55644611,Photo,Sharp-shinned Hawk (Northern),Accipiter striatus [velox Group],,Jesse Adkins,2017-04-24,2017,4,24,1452,United States,US-MD-015,Maryland,Cecil,Whitaker Woods,39.6052087,-75.9770089,"",,Unspecified,"","",,,,,,,S36241694,"",,,,I guess Mr.Havoc is still here although absent for about three weeks. Tried for a Titmouse and a Chickadee. Left empty,Accipiter striatus,shshaw2,Group,7821,,5.00,4,,3456,4608
40508581,Photo,Sharp-shinned Hawk,Accipiter striatus,,Steve Gniadek,2016-11-20,2016,11,20,800,United States,US-MT-029,Montana,Flathead,Yard list,48.2991914,-114.1815445,"",,Unspecified,"","",,,,,,,S32646190,"",,,,"Perched on brush pile at 1015; flew into base of caragana when I approached for photos at 1020.  Back on brush pile at 1205-1225.",Accipiter striatus,shshaw,Species,7896,,5.00,4,,3456,4608
186507361,Photo,Sharp-shinned Hawk,Accipiter striatus,,Jorge Eduardo  Ruano,2019-10-27,2019,10,27,1556,Belize,BZ-TOL,Toledo,,Rio Blanco NP,16.2287820,-89.0940160,"",,Unspecified,"","",,,,,,,S60981036,"",,,,,Accipiter striatus,shshaw,Species,7816,,3.81,16,,1151,1727
394462961,Photo,Sharp-shinned Hawk,Accipiter striatus,,Patrick Maurice,2021-10-15,2021,10,15,636,United States,US-NJ-009,New Jersey,Cape May,Cape Island--CMP--Coral Ave. dune crossing,38.9327948,-74.9651502,"",,Unspecified,"","",,,,,,,S96182454,"",,,,,Accipiter striatus,shshaw,Species,7896,,4.60,5,,1775,2662
394123991,Photo,Sharp-shinned Hawk,Accipiter striatus,,Myron Peterson,2021-12-07,2021,12,7,1150,United States,US-MN-053,Minnesota,Hennepin,Ironwood Court (home),44.8766433,-93.4659130,"",,Unspecified,"","",,,,,,,S98589737,"",,,,photos taken through window.,Accipiter striatus,shshaw,Species,7896,,4.60,5,,3712,2475
388055971,Photo,Sharp-shinned Hawk,Accipiter striatus,,Dan Vickers,2021-11-14,2021,11,14,855,United States,US-GA-135,Georgia,Gwinnett,George Pierce Park,34.0592720,-84.0515040,"",,Unspecified,"","",,,,,,,S97573042,"",,,,,Accipiter striatus,shshaw,Species,7896,,4.60,5,,1800,1800
374986261,Photo,Sharp-shinned Hawk (Northern),Accipiter striatus [velox Group],,Aidan Brubaker,2021-10-03,2021,10,3,1521,United States,US-CA-041,California,Marin,Hawk Hill,37.8281456,-122.4991411,"",,Unspecified,"","",,,,,,,S95567915,"",,,,,Accipiter striatus,shshaw2,Group,7901,,4.60,5,,1542,1962
355691521,Photo,Sharp-shinned Hawk,Accipiter striatus,Spinus pinus -- Pine Siskin,Ian Routley,2021-07-19,2021,7,19,2002,Canada,CA-BC-SL,British Columbia,Squamish-Lillooet,Lillooet--Pineridge Road,50.6831927,-121.9142961,Adult – 1,Foraging or Eating,Unspecified,"","",,,,,,,S92023791,"",,,,"I watched as this SSHA consumed almost the entire bird including swallowing it's feet.",Accipiter striatus,shshaw,Species,7896,,4.60,5,"",2383,3842
328181081,Photo,Sharp-shinned Hawk,Accipiter striatus,,Daniel Eslake,2021-04-18,2021,4,18,1610,Canada,CA-BC-SL,British Columbia,Squamish-Lillooet,Owl Ridge Home,50.3539430,-122.7133180,"",,Unspecified,"","",,,,,,,S85933981,"",,,,,Accipiter striatus,shshaw,Species,7816,,4.60,5,,1365,2048
309550161,Photo,Sharp-shinned Hawk,Accipiter striatus,,Hélène Crête,2021-02-19,2021,2,19,730,Canada,CA-QC-BC,Quebec,Bécancour,"ma cour, chemin Thibodeau, St-Grégoire",46.2316874,-72.5275004,"",,Unspecified,"","",,,,,,,S81970882,"",,,,"brève présence à 10 h 08 en matinée, puis retour à 10 h 40 pour une quinzaine de minutes",Accipiter striatus,shshaw,Species,7816,,4.60,5,,1820,2369
288768301,Photo,Sharp-shinned Hawk,Accipiter striatus,,Daniel Horton,2020-12-16,2020,12,16,1115,United States,US-FL-091,Florida,Okaloosa,Okaloosa Holding Ponds (RESTRICTED ACCESS AREA),30.4742000,-86.6236000,"",,Unspecified,"","",,,,,,,S77554219,"",,,,Closely perched adult.,Accipiter striatus,shshaw,Species,7896,,4.60,5,,2815,3611
285781491,Photo,Sharp-shinned Hawk,Accipiter striatus,,Pat Hare,2020-12-06,2020,12,6,900,Canada,CA-ON-PL,Ontario,Peel,Mississauga--Shalebank Hollow Park,43.5587726,-79.6868664,"",,Unspecified,"","",,,,,,,S77157120,"",,,,,Accipiter striatus,shshaw,Species,7816,,4.60,5,,1536,2150
247265081,Photo,Sharp-shinned Hawk,Accipiter striatus,,Jerry Liguori,1998-05-02,1998,5,2,0,United States,US-NM-001,New Mexico,Bernalillo,Cibola NF -- Sandia Hawk Watch (spring),35.0867430,-106.4325830,Adult Male – 1,"",Unspecified,"","",,,,,,,S40377472,"",,,,,Accipiter striatus,shshaw,Species,7816,,4.60,5,In-hand,1111,1800
208669341,Photo,Sharp-shinned Hawk,Accipiter striatus,,Bruce Nott,2020-02-11,2020,2,11,1020,United States,US-NY-071,New York,Orange,Home,41.5163686,-74.0888459,"",,Unspecified,"","",,,,,,,S64370964,"",,,,,Accipiter striatus,shshaw,Species,7896,,4.60,5,,3456,4608
169150781,Photo,Sharp-shinned Hawk,Accipiter striatus,,Benny Diaz,2019-07-13,2019,7,13,738,Puerto Rico,PR-AJ,Adjuntas,,Finca Madre Tierra,18.1279615,-66.7339808,"",,Unspecified,"","",,,,,,,S58158443,"",,,,Photos available,Accipiter striatus,shshaw,Species,7816,,4.60,5,,4516,3490
148099281,Photo,Sharp-shinned Hawk,Accipiter striatus,,Ted Floyd,2019-03-30,2019,3,30,1325,United States,US-CO-013,Colorado,Boulder,Waneka Lake/Greenlee Preserve,39.9970462,-105.1141834,Juvenile,,Unspecified,"","",,,,,,,S54383316,"",,,Same bird as ML148099141.,,Accipiter striatus,shshaw,Species,7896,,4.60,5,,3000,4000
137032461,Photo,Sharp-shinned Hawk,Accipiter striatus,,Tom Younkin,2019-01-25,2019,1,25,1400,United States,US-RI-003,Rhode Island,Kent,Scalloptown Park,41.6500455,-71.4542406,Immature,,Unspecified,"","",,,,,,,S52041621,"",,,Dining on a starling.  Good work sharpie!,,Accipiter striatus,shshaw,Species,7816,,4.60,5,,2380,2367
134323211,Photo,Sharp-shinned Hawk,Accipiter striatus,,Dan Tallman,2019-01-10,2019,1,10,1324,United States,US-MN-163,Minnesota,Washington,Carpenter Nature Center,44.7661095,-92.8146245,Immature Female,,Unspecified,"","",,,,,,,S51531537,"",,,,,Accipiter striatus,shshaw,Species,7816,,4.60,5,,2400,1800
127588011,Photo,Sharp-shinned Hawk,Accipiter striatus,,Ed Wransky,2018-12-07,2018,12,7,1115,United States,US-OH-093,Ohio,Lorain,Home,41.2639893,-82.0801380,Juvenile,,Unspecified,"","",,,,,,,S50497082,"",,,,,Accipiter striatus,shshaw,Species,7816,,4.60,5,,2403,3888
122779701,Photo,Sharp-shinned Hawk,Accipiter striatus,,Cathy DeNeal,2018-11-09,2018,11,9,1549,United States,US-IL-165,Illinois,Saline,Cathy and Gerald DeNeal home,37.6190628,-88.4855792,"",,Unspecified,"","",,,,,,,S49817352,"",,,,"This bird tried to snag a goldfinch on the feeder, but missed. It remained on the feeder for six minutes before moving to another shepherd's hook, where it remained another minute.",Accipiter striatus,shshaw,Species,7816,,4.60,5,,2279,3419
122164371,Photo,Sharp-shinned Hawk,Accipiter striatus,,Grant Beauprez,2018-11-03,2018,11,3,741,United States,US-NM-041,New Mexico,Roosevelt,Melrose Woods,34.4343548,-103.7991207,"","",Unspecified,"","",,,,,,,S49641474,"",,,,,Accipiter striatus,shshaw,Species,7816,,4.60,5,Watermark,2266,2219
93738831,Photo,Sharp-shinned Hawk,Accipiter striatus,,Alex Lamoreaux,2017-10-18,2017,10,18,715,United States,US-MN-137,Minnesota,St. Louis,Hawk Ridge Nature Reserve,46.8469659,-92.0315212,Adult – 1,Flying,Unspecified,"","",,,,,,,S39999931,"",,,,Exact count of migrants,Accipiter striatus,shshaw,Species,7896,,4.60,5,"",1942,2917
93100651,Photo,Sharp-shinned Hawk,Accipiter striatus,,Linda Hagen,2018-04-05,2018,4,5,1155,United States,US-WA-071,Washington,Walla Walla,My BackYard,46.0584748,-118.3216542,Juvenile,,Unspecified,"","",,,,,,,S44289091,"",,,,"Juvenile.  Flew into bird area about 12:05 pm.  Missed, stopped on fence, hook, cinder blocks,checking every angle, then flew to the big back maple.  Still there at 12:45, gone at 12:50.   Attacked again at 2:05 pm. Missed again, stopped on fence briefly then flew low to the east.  Saw one more time at 4:45 pm.  Again missed, stopped on blocks, fence, then birch tree briefly before flying west.",Accipiter striatus,shshaw,Species,7816,,4.60,5,,3456,4608
86953081,Photo,Sharp-shinned Hawk,Accipiter striatus,,Vicky Sroczynski,2018-02-21,2018,2,21,1430,United States,US-IL-043,Illinois,DuPage,Darien Club Drive,41.7616596,-87.9828962,"","",Unspecified,"","",,,,,,,S43072424,"",,,possible sub-adult female,"approaching adulthood (orange iris)-see rounded head and same-length retrices-short wings-this bird is on the large end of Sharpie continuum and i went back and forth on ID-can't see legs-very approachable",Accipiter striatus,shshaw,Species,7816,,4.60,5,Habitat,3999,3176
72228781,Photo,Sharp-shinned Hawk,Accipiter striatus,,"Michael O'Brien",2017-10-17,2017,10,17,652,United States,US-NJ-009,New Jersey,Cape May,Cape May Co. Park South--Delaware Ave. entrance,39.0413779,-74.9334419,"",,Unspecified,"","",,,,,,,S39973982,"",,,,,Accipiter striatus,shshaw,Species,7816,,4.60,5,,1364,2048
63950641,Photo,Sharp-shinned Hawk,Accipiter striatus,,Nick Pulcinella,2016-12-27,2016,12,27,1345,United States,US-PA-101,Pennsylvania,Philadelphia,John Heinz NWR--impoundment (Philadelphia Co.),39.8893501,-75.2601457,"",,Unspecified,"","",,,,,,,S33235351,"",,,,,Accipiter striatus,shshaw,Species,7896,,4.60,5,,1450,2048
45386711,Photo,Sharp-shinned Hawk,Accipiter striatus,,Vicki St Germaine,2012-04-29,2012,4,29,830,Canada,CA-NT-FS,Northwest Territories,Fort Smith,Calder Crescent,62.4389518,-114.4145309,"",,Unspecified,"","",,,,,,,S10579304,"",,,,,Accipiter striatus,shshaw,Species,7816,,4.60,5,,1821,2730
35616781,Photo,Sharp-shinned Hawk,Accipiter striatus,,David Brown,2016-09-20,2016,9,20,1000,United States,US-PA-081,Pennsylvania,Lycoming,Rte. 15 Overlook,41.2262075,-76.9379479,"",,Unspecified,"","",,,,,,,S31679821,"",,,,,Accipiter striatus,shshaw,Species,7816,,4.60,5,,2040,1360
56264411,Photo,Sharp-shinned Hawk,Accipiter striatus,,Fred  MacKenzie,2017-04-30,2017,4,30,1116,Canada,CA-NS-PI,Nova Scotia,Pictou,Plymouth,45.5567990,-62.6432560,"",,Unspecified,"","",,,,,,,S36418264,"",,,,Took out a feeding Savannah Sparrow,Accipiter striatus,shshaw,Species,7816,,3.70,20,,1080,1440
91969191,Photo,Sharp-shinned Hawk,Accipiter striatus,,Devin Griffiths,2018-03-09,2018,3,9,910,United States,US-MA-015,Massachusetts,Hampshire,Oakwood Dr.,42.2389612,-72.3677158,"",,Unspecified,"","",,,,,,,S43499431,"",,,,,Accipiter striatus,shshaw,Species,7816,,4.12,8,,3055,4582
55723031,Photo,Sharp-shinned Hawk,Accipiter striatus,,Bob Bidney,2017-04-25,2017,4,25,1010,Canada,CA-AB-EL,Alberta,Edmonton,Bon Accord Alberta CA,53.8386141,-113.4035718,"","",Unspecified,"","",,,,,,,S36257673,"",,,,"Banded but can't read band.",Accipiter striatus,shshaw,Species,7816,,4.12,8,Multiple species,2592,3888
277300001,Photo,Sharp-shinned Hawk,Accipiter striatus,,Bob Hargis,2020-11-04,2020,11,4,1000,United States,US-WY-013,Wyoming,Fremont,"5077 Riverview Rd.    Riverton,,WY",43.0204766,-108.4631128,"",,Unspecified,"","",,,,,,,S75824090,"",,,,"broad streaking small size and thinner legs and feet than Cooper's",Accipiter striatus,shshaw,Species,7816,,4.33,6,,3888,5184
191063241,Photo,Sharp-shinned Hawk,Accipiter striatus,,Harold Quinn,2019-12-02,2019,12,2,1330,United States,US-NJ-019,New Jersey,Hunterdon,Cherryville Hollow,40.5422107,-74.8663116,"",,Unspecified,"","",,,,,,,S61932972,"",,,,,Accipiter striatus,shshaw,Species,7816,,4.33,6,,2810,3607
87631051,Photo,Sharp-shinned Hawk,Accipiter striatus,,Ann Vaughan,2018-02-25,2018,2,25,625,United States,US-CA-079,California,San Luis Obispo,Yard - Morro Bay,35.3953086,-120.8641663,"",,Unspecified,"","",,,,,,,S43223107,"",,,,Observed the bird for almost an hour sitting on the fence. The sun was just starting to rise over the hills when it finally flew away.,Accipiter striatus,shshaw,Species,7816,,4.33,6,,1815,2327
51156271,Photo,Sharp-shinned Hawk (Northern),Accipiter striatus [velox Group],,Russ Namitz,2017-03-12,2017,3,12,1010,United States,US-OR-055,Oregon,Sherman,Grass Valley,45.3546880,-120.7881640,"",,Unspecified,"","",,,,,,,S35131972,"",,,,,Accipiter striatus,shshaw2,Group,7901,,4.33,6,,1536,2048
257599281,Photo,Sharp-shinned Hawk,Accipiter striatus,,Guilherme Lopes,2020-08-09,2020,8,9,700,Brazil,BR-SP,São Paulo,,Parque Santa Cecilia,-22.7246926,-47.6176000,"",,Unspecified,"","",,,,,,,S72250782,"",,,,,Accipiter striatus,shshaw,Species,7816,,4.50,6,,3672,4896
90673361,Photo,Sharp-shinned Hawk,Accipiter striatus,,Janine Schutt,2018-03-20,2018,3,20,1505,United States,US-WA-035,Washington,Kitsap,"Janine's yard",47.6050887,-122.7646377,Immature,,Unspecified,"","",,,,,,,S43821936,"",,,,,Accipiter striatus,shshaw,Species,7816,,4.50,6,,2578,3868
310282671,Photo,Sharp-shinned Hawk,Accipiter striatus,,Natalie Barkhouse-Bishop,2021-02-21,2021,2,21,944,Canada,CA-NS-KI,Nova Scotia,Kings,"1441 Belcher St, Port Williams CA-NS 45.09444, -64.40956",45.0944360,-64.4095570,"",,Unspecified,"","",,,,,,,S82065077,"",,,,,Accipiter striatus,shshaw,Species,7816,,4.14,7,,806,1073
32965451,Photo,Sharp-shinned Hawk,Accipiter striatus,,Michael Woodruff,2009-02-08,2009,2,8,0,United States,US-WA-063,Washington,Spokane,Elk Mountain (home),47.5739708,-117.3237915,"",,Unspecified,"","",,,,,,,S31166582,"",,,,,Accipiter striatus,shshaw,Species,7816,,4.00,10,,700,488
380454421,Photo,Sharp-shinned Hawk (Northern),Accipiter striatus [velox Group],,Brian Sullivan,2021-10-16,2021,10,16,747,United States,US-CA-053,California,Monterey,Moonglow Dairy,36.8103654,-121.7667337,Adult – 1,Flying,Unspecified,"","",,,,,,,S96241266,"",,,,,Accipiter striatus,shshaw2,Group,7901,,4.60,5,"",2509,4182
293424751,Photo,Sharp-shinned Hawk,Accipiter striatus,,John Zakelj,2021-01-01,2021,1,1,1152,United States,US-MN-037,Minnesota,Dakota,Rebecca Lake--south end,44.7461846,-92.8589773,"",,Unspecified,"","",,,,,,,S78397153,"",,,,"This hawk was harassed by 2 crows until the hawk chased one of the crows a short distance and then flew away,",Accipiter striatus,shshaw,Species,7896,,4.60,5,,2913,1942
288968711,Photo,Sharp-shinned Hawk,Accipiter striatus,,Mark Wilson,2020-12-12,2020,12,12,800,United States,US-CA-037,California,Los Angeles,Apollo Park,34.7421591,-118.2011104,"",,Unspecified,"","",,,,,,,S77633911,"",,,,,Accipiter striatus,shshaw,Species,7816,,4.60,5,,2266,3404
274737481,Photo,Sharp-shinned Hawk,Accipiter striatus,,Kathy Paulin,2020-10-26,2020,10,26,1320,United States,US-UT-047,Utah,Uintah,Maeser yard,40.4775743,-109.5833391,"",,Unspecified,"","",,,,,,,S75443654,"",,,,,Accipiter striatus,shshaw,Species,7816,,4.60,5,,2466,2165
272433791,Photo,Sharp-shinned Hawk (Northern),Accipiter striatus [velox Group],,Eli Gross,2020-10-16,2020,10,16,729,United States,US-CA-075,California,San Francisco,Presidio--Battery Godfrey,37.8037613,-122.4774715,"",,Unspecified,"","",,,,,,,S74912176,"",,,,,Accipiter striatus,shshaw2,Group,7821,,4.60,5,,3228,4309
154088881,Photo,Sharp-shinned Hawk,Accipiter striatus,,Josée Rousseau,2019-04-25,2019,4,25,645,Canada,CA-QC-DD,Quebec,Le Domaine-du-Roy,"Roberval, Boulevard de l'Anse",48.4789965,-72.1999598,"",,Unspecified,"","",,,,,,,S55451488,"",,,,"L'oiseau était déjà présent dans la cour à mon lever et est demeuré tout l'avant-midi dans les arbres à se reposer et à faire sa toilette. Ne semblait pas surveiller un repas. Très peu farouche, je l'ai photographié pendant un bon deux heures, me trouvant quelques fois à 8 mètres de lui.",Accipiter striatus,shshaw,Species,7816,,4.60,5,,662,1000
139761601,Photo,Sharp-shinned Hawk,Accipiter striatus,,Jim Merritt,2019-02-09,2019,2,9,700,United States,US-CO-041,Colorado,El Paso,Red Rock Canyon Open Space,38.8473432,-104.8811263,"",,Unspecified,"","",,,,,,,S52519107,"",,,,,Accipiter striatus,shshaw,Species,7816,,4.60,5,,2756,2632
138699901,Photo,Sharp-shinned Hawk,Accipiter striatus,,Daniel Irons,2015-02-23,2015,2,23,0,United States,US-MD-035,Maryland,"Queen Anne's",Big water farm (Private),38.8879430,-76.1964941,"",,Unspecified,"","",,,,,,,S52331975,"",,,,,Accipiter striatus,shshaw,Species,7896,,4.60,5,,1450,2175
91131081,Photo,Sharp-shinned Hawk,Accipiter striatus,,Van Truan,2018-01-27,2018,1,27,1100,United States,US-CO-101,Colorado,Pueblo,Pueblo City Park,38.2638016,-104.6548004,"",,Unspecified,"","",,,,,,,S42284566,"",,,,,Accipiter striatus,shshaw,Species,7816,,4.60,5,,904,1200
83924481,Photo,Sharp-shinned Hawk,Accipiter striatus,,Matthew Brown,2018-01-29,2018,1,29,1512,United States,US-NY-075,New York,Oswego,Home,43.6053848,-76.1471608,"",,Unspecified,"","",,,,,,,S42355086,"",,,,,Accipiter striatus,shshaw,Species,7896,,4.60,5,,1837,3671
83924401,Photo,Sharp-shinned Hawk,Accipiter striatus,,Matthew Brown,2018-01-29,2018,1,29,1512,United States,US-NY-075,New York,Oswego,Home,43.6053848,-76.1471608,"",,Unspecified,"","",,,,,,,S42355086,"",,,,,Accipiter striatus,shshaw,Species,7896,,4.60,5,,1801,2423
77240481,Photo,Sharp-shinned Hawk,Accipiter striatus,,Scott Martin,2017-12-04,2017,12,4,830,United States,US-MA-005,Massachusetts,Bristol,Demarest Lloyd SP,41.5271179,-70.9857559,"",,Unspecified,"","",,,,,,,S40913470,"",,,,,Accipiter striatus,shshaw,Species,7816,,4.60,5,,1469,2200
77240301,Photo,Sharp-shinned Hawk,Accipiter striatus,,Scott Martin,2017-12-04,2017,12,4,830,United States,US-MA-005,Massachusetts,Bristol,Demarest Lloyd SP,41.5271179,-70.9857559,"",,Unspecified,"","",,,,,,,S40913470,"",,,,,Accipiter striatus,shshaw,Species,7816,,4.60,5,,1469,2200
72290831,Photo,Sharp-shinned Hawk,Accipiter striatus,,Steven Mlodinow,2017-10-17,2017,10,17,938,United States,US-CO-123,Colorado,Weld,Glenmere Park,40.4086000,-104.7050000,"",,Unspecified,"","",,,,,,,S39984312,"",,,,,Accipiter striatus,shshaw,Species,7816,,4.60,5,,3565,4486
55656661,Photo,Sharp-shinned Hawk,Accipiter striatus,,Tom Johnson,2017-04-14,2017,4,14,1024,United States,US-CO-051,Colorado,Gunnison,US-CO-Almont-19214-19398 N State Highway 135 - 38.7874x-106.8724,38.7874040,-106.8723870,"",,Unspecified,"","",,,,,,,S36002441,"",,,,,Accipiter striatus,shshaw,Species,7816,,4.00,9,,868,1300
376277631,Photo,Sharp-shinned Hawk,Accipiter striatus,,Nancy Villone,2021-10-09,2021,10,9,755,United States,US-MA-001,Massachusetts,Barnstable,Cape Cod Organic Farm,41.6979064,-70.2887732,Immature – 1,,Unspecified,"","",,,,,,,S95844172,"",,,,might have been 3.  2 were seen together in flight after a single bird was observed some time and  distance earlier.  The single bird was being mobbed by a half dozen BLJA and a few flickers.  Tom got some good audio on this kerfuffle.   photos are of the same bird,Accipiter striatus,shshaw,Species,7896,,4.33,6,,974,1461
300667651,Photo,Sharp-shinned Hawk,Accipiter striatus,,John Dumlao,2021-01-23,2021,1,23,700,United States,US-CA-073,California,San Diego,Tijuana River Valley Regional Park--Community Gardens,32.5567428,-117.0849895,"",,Unspecified,"","",,,,,,,S79789812,"",,,,,Accipiter striatus,shshaw,Species,7896,,4.33,6,,1536,2304
291999831,Photo,Sharp-shinned Hawk,Accipiter striatus,,Torrey Gage-Tomlinson,2020-12-28,2020,12,28,1014,United States,US-OR-061,Oregon,Union,"201 6th Street, La Grande, Oregon, US (45.313, -118.094)",45.3132771,-118.0941136,"",,Unspecified,"","",,,,,,,S78163534,"",,,,,Accipiter striatus,shshaw,Species,7816,,4.33,6,,1884,1256
274461671,Photo,Sharp-shinned Hawk,Accipiter striatus,,Ryan Brady,2020-10-25,2020,10,25,745,United States,US-WI-007,Wisconsin,Bayfield,Bourgo Home,46.6632731,-90.9371531,"",,Unspecified,"","",,,,,,,S75402726,"",,,,,Accipiter striatus,shshaw,Species,7816,,4.33,6,,767,735
22787631,Photo,Sharp-shinned Hawk,Accipiter striatus,,Alan Versaw,2016-01-04,2016,1,4,910,United States,US-CO-041,Colorado,El Paso,Pulpit Rock Park,38.9161473,-104.8076820,"",,Unspecified,"","",,,,,,,S26674278,"",,,,,Accipiter striatus,shshaw,Species,7816,,4.33,6,,850,620
119141651,Photo,Sharp-shinned Hawk,Accipiter striatus,,Clayton  Koonce,2018-10-16,2018,10,16,1020,United States,US-MD-027,Maryland,Howard,Lake Kittamaqundi,39.2160958,-76.8551588,Immature Male – 1,,Unspecified,"","",,,,,,,S49231384,"",,,"This bird was ill; later, West Nile virus was suggested by raptor rescue organization. Their volunteer was able to retrieve it, but it died on the way to the center.","Photos might disturb. Injured bird at north end of lake, in area of the bench with view of the lake. When I first startled it on the ground and then photographed it on a low perch, I couldn't tell anything was wrong. When it flew again and dropped out of sight, something obviously was amiss. I then found it in shallow water near the bank. It flopped around a bit and moved into shallower water closer to bank; twisting its head around and looking up. That is where I left it. Phone message has been left with local wildlife rescue. Ongoing situation.  //  12:00pm. When I returned to the spot to check on the bird, it had moved up onto the bank, but I startled it. It dropped back into the water then fluttered onto the bank again. Left it alone. It is twisting its head around awkwardly.",Accipiter striatus,shshaw,Species,7896,,4.14,7,,3456,4608
84200651,Photo,Sharp-shinned Hawk,Accipiter striatus,,Kevin Smith,2018-02-01,2018,2,1,1138,United States,US-MN-037,Minnesota,Dakota,Smith Yard,44.6604498,-92.8539240,"",,Unspecified,"","",,,,,,,S42413230,"",,,,,Accipiter striatus,shshaw,Species,7816,,4.14,7,,3114,3204
55775681,Photo,Sharp-shinned Hawk,Accipiter striatus,,Ken McKenna,2017-04-25,2017,4,25,1100,Canada,CA-NS-PI,Nova Scotia,Pictou,"CA-NS Plymouth, E River East Side Rd",45.5551270,-62.6492310,"",,Unspecified,"","",,,,,,,S36271563,"",,,,On my deck,Accipiter striatus,shshaw,Species,7816,,3.62,24,,1280,960
